$WIMTW,24.80,C*33
$GPRMC,003547,A,4226.5049,N,08241.2786,W,5.10,343.89,160918,7.76,W,A*20
$WIMWV,43.22,T,9.11,N,A*1B
$WIMWV,28.00,R,13.30,N,A*28
$GPRMB,A,0.039,L,,R28,4229.6810,N,08242.8940,W,3.398,339.4,,V,A*02
$WIMWV,43.22,T,9.11,N,A*1B
$WIMWV,28.00,R,13.30,N,A*28
$WIMDA,,I,,B,,C,25.30,C,,,,,,T,,M,,N,,M*6D
$GPGGA,003547,4226.5049,N,08241.2786,W,1,13,0.69,207.96,M,-34.78,M,,*49
$GPGSA,A,3,01,10,11,12,14,15,18,20,21,24,25,31,1.17,0.69,0.95*0F
$WIMWV,43.22,T,9.11,N,A*1B
$WIMWV,28.00,R,13.30,N,A*28
$GPGSV,4,1,13,01,08,327,35,10,80,122,36,11,10,313,26,12,23,083,38*7C
$WIMWV,43.22,T,9.11,N,A*1B
$WIMWV,28.00,R,13.30,N,A*28
$GPGSV,4,2,13,14,45,274,33,15,02,081,35,18,25,307,35,20,49,137,27*72
$VWVHW,,T,,M,4.61,N,8.53,K*59
$WIMWV,43.22,T,9.11,N,A*1B
$WIMWV,28.00,R,13.30,N,A*28
$GPGSV,4,3,13,21,06,179,32,24,24,047,38,25,21,127,26,31,23,209,43*74
$GPGSV,4,4,13,32,66,300,36*4C
$WIMTW,25.30,C*39
$GPGLL,4226.5049,N,08241.2786,W,003547,A,A*5E
$WIMWV,61.69,T,8.06,N,A*13
$WIMWV,38.50,R,11.40,N,A*29
$GPBOD,340.1,T,347.8,M,R28,*11
$GPBWC,003547,4229.6810,N,08242.8940,W,339.4,T,347.2,M,3.398,N,R28,A*24
$WIMWV,61.69,T,8.06,N,A*13
$WIMWV,38.50,R,11.40,N,A*29
$WIMDA,,I,,B,,C,25.30,C,,,,,,T,,M,,N,,M*6D
$HEHDT,343.89,T*1A
$GPVTG,343.89,T,351.65,M,5.10,N,9.44,K,A*2F
$GPXTE,A,A,0.039,L,N,A*39
$WIMWV,61.69,T,8.06,N,A*13
$WIMWV,38.50,R,11.40,N,A*29
$PGRME,5.85,M,7.88,M,9.81,M*11
$PGRMZ,682,f,3*17
$PGRMM,WGS 84*06
$GPRTE,1,1,c,*37
$HCHDM,,M*07
$WIMWV,,R,,,A*6D
$WIMWV,61.69,T,8.06,N,A*13
$WIMWV,38.50,R,11.40,N,A*29
$VWVHW,,T,,M,4.84,N,8.96,K*5B
$GPAPB,A,A,0.039,L,N,V,V,347.8,M,R28,347.2,M,302.8,M,A*37
$WIMWV,61.69,T,8.06,N,A*13
$WIMWV,38.50,R,11.40,N,A*29
$WIMTW,25.30,C*39
$GPRMC,003549,A,4226.5077,N,08241.2796,W,5.06,344.83,160918,7.76,W,A*28
$WIMWV,57.06,T,9.53,N,A*1E
$WIMWV,38.00,R,13.00,N,A*2A
$GPRMB,A,0.039,L,,R28,4229.6810,N,08242.8940,W,3.396,339.4,,V,A*0C
$WIMWV,57.06,T,9.53,N,A*1E
$WIMWV,38.00,R,13.00,N,A*2A
$WIMDA,,I,,B,,C,25.30,C,,,,,,T,,M,,N,,M*6D
$GPGGA,003549,4226.5077,N,08241.2796,W,1,13,0.69,207.89,M,-34.78,M,,*45
$GPGSA,A,3,01,10,11,12,14,15,18,20,21,24,25,31,1.17,0.69,0.95*0F
$WIMWV,57.06,T,9.53,N,A*1E
$WIMWV,38.00,R,13.00,N,A*2A
$GPGSV,4,1,13,01,08,327,35,10,80,122,36,11,10,312,26,12,23,083,38*7D
$WIMWV,57.06,T,9.53,N,A*1E
$WIMWV,38.00,R,13.00,N,A*2A
$GPGSV,4,2,13,14,45,274,33,15,02,081,36,18,25,307,35,20,49,137,25*73
$VWVHW,,T,,M,4.61,N,8.53,K*59
$WIMWV,57.06,T,9.53,N,A*1E
$WIMWV,38.00,R,13.00,N,A*2A
$GPGSV,4,3,13,21,06,179,32,24,24,047,38,25,21,127,27,31,23,209,42*74
$GPGSV,4,4,13,32,66,300,35*4F
$WIMTW,25.30,C*39
$GPGLL,4226.5077,N,08241.2796,W,003549,A,A*5C
$WIMWV,40.60,T,9.76,N,A*1F
$WIMWV,27.00,R,14.00,N,A*23
$GPBOD,340.1,T,347.8,M,R28,*11
$GPBWC,003549,4229.6810,N,08242.8940,W,339.4,T,347.2,M,3.396,N,R28,A*24
$WIMWV,40.60,T,9.76,N,A*1F
$WIMWV,27.00,R,14.00,N,A*23
$WIMDA,,I,,B,,C,25.30,C,,,,,,T,,M,,N,,M*6D
$HEHDT,344.83,T*17
$GPVTG,344.83,T,352.59,M,5.06,N,9.37,K,A*2D
$GPXTE,A,A,0.039,L,N,A*39
$WIMWV,40.60,T,9.76,N,A*1F
$WIMWV,27.00,R,14.00,N,A*23
$PGRME,5.78,M,7.71,M,9.64,M*1E
$PGRMZ,682,f,3*17
$PGRMM,WGS 84*06
$GPRTE,1,1,c,*37
$HCHDM,,M*07
$WIMWV,,R,,,A*6D
$WIMWV,40.60,T,9.76,N,A*1F
$WIMWV,27.00,R,14.00,N,A*23
$VWVHW,,T,,M,4.84,N,8.96,K*5B
$GPAPB,A,A,0.039,L,N,V,V,347.8,M,R28,347.2,M,302.8,M,A*37
$WIMWV,54.86,T,9.20,N,A*11
$WIMWV,36.00,R,12.80,N,A*2D
$WIMTW,25.30,C*39
$GPRMC,003551,A,4226.5104,N,08241.2806,W,5.09,343.44,160918,7.76,W,A*21
$WIMWV,55.01,T,9.18,N,A*14
$WIMWV,36.00,R,12.80,N,A*2D
$GPRMB,A,0.039,L,,R28,4229.6810,N,08242.8940,W,3.393,339.4,,V,A*09
$WIMWV,55.01,T,9.18,N,A*14
$WIMWV,36.00,R,12.80,N,A*2D
$WIMDA,,I,,B,,C,25.80,C,,,,,,T,,M,,N,,M*66
$GPGGA,003551,4226.5104,N,08241.2806,W,1,13,0.69,208.14,M,-34.78,M,,*44
$GPGSA,A,3,01,10,11,12,14,15,18,20,21,24,25,31,1.17,0.69,0.95*0F
$WIMWV,55.01,T,9.18,N,A*14
$WIMWV,36.00,R,12.80,N,A*2D
$GPGSV,4,1,13,01,08,327,36,10,80,122,36,11,10,312,25,12,23,083,38*7D
$WIMWV,55.01,T,9.18,N,A*14
$WIMWV,36.00,R,12.80,N,A*2D
$GPGSV,4,2,13,14,45,274,31,15,02,081,36,18,25,307,33,20,49,137,25*77
$VWVHW,,T,,M,4.83,N,8.94,K*5E
$WIMWV,47.26,T,10.24,N,A*25
$WIMWV,32.00,R,14.20,N,A*25
$GPGSV,4,3,13,21,06,179,32,24,24,047,38,25,21,127,23,31,23,209,42*70
$GPGSV,4,4,13,32,66,300,35*4F
$WIMTW,25.80,C*32
$GPGLL,4226.5104,N,08241.2806,W,003551,A,A*56
$WIMWV,47.26,T,10.24,N,A*25
$WIMWV,32.00,R,14.20,N,A*25
$GPBOD,340.1,T,347.8,M,R28,*11
$GPBWC,003551,4229.6810,N,08242.8940,W,339.4,T,347.2,M,3.393,N,R28,A*28
$WIMWV,47.26,T,10.24,N,A*25
$WIMWV,32.00,R,14.20,N,A*25
$WIMDA,,I,,B,,C,25.80,C,,,,,,T,,M,,N,,M*66
$HEHDT,343.44,T*1B
$GPVTG,343.44,T,351.21,M,5.09,N,9.42,K,A*20
$GPXTE,A,A,0.039,L,N,A*39
$WIMWV,47.26,T,10.24,N,A*25
$WIMWV,32.00,R,14.20,N,A*25
$PGRME,5.77,M,7.61,M,9.55,M*12
$PGRMZ,683,f,3*16
$PGRMM,WGS 84*06
$GPRTE,1,1,c,*37
$HCHDM,,M*07
$WIMWV,,R,,,A*6D
$WIMWV,47.26,T,10.24,N,A*25
$WIMWV,32.00,R,14.20,N,A*25
$VWVHW,,T,,M,4.55,N,8.42,K*5E
$GPAPB,A,A,0.039,L,N,V,V,347.8,M,R28,347.2,M,302.8,M,A*37
$WIMWV,44.58,T,9.18,N,A*18
$WIMWV,29.00,R,13.30,N,A*29
$WIMTW,25.80,C*32
$GPRMC,003553,A,4226.5131,N,08241.2818,W,4.95,344.27,160918,7.76,W,A*2C
$WIMWV,43.97,T,9.28,N,A*1F
$WIMWV,29.00,R,13.30,N,A*29
$GPRMB,A,0.039,L,,R28,4229.6810,N,08242.8940,W,3.390,339.4,,V,A*0A
$WIMWV,43.97,T,9.28,N,A*1F
$WIMWV,29.00,R,13.30,N,A*29
$WIMDA,,I,,B,,C,25.80,C,,,,,,T,,M,,N,,M*66
$GPGGA,003553,4226.5131,N,08241.2818,W,1,13,0.69,208.25,M,-34.78,M,,*4D
$GPGSA,A,3,01,10,11,12,14,15,18,20,21,24,25,31,1.17,0.69,0.95*0F
$WIMWV,43.97,T,9.28,N,A*1F
$WIMWV,29.00,R,13.30,N,A*29
$GPGSV,4,1,13,01,08,327,36,10,80,122,36,11,10,312,24,12,23,083,38*7C
$WIMWV,43.97,T,9.28,N,A*1F
$WIMWV,29.00,R,13.30,N,A*29
$GPGSV,4,2,13,14,45,274,30,15,02,081,37,18,25,307,34,20,49,137,30*74
$VWVHW,,T,,M,4.65,N,8.61,K*5C
$WIMWV,57.94,T,9.25,N,A*14
$WIMWV,38.50,R,12.60,N,A*28
$GPGSV,4,3,13,21,06,179,32,24,24,047,38,25,21,127,24,31,23,209,42*77
$GPGSV,4,4,13,32,66,300,35*4F
$WIMTW,25.80,C*32
$GPGLL,4226.5131,N,08241.2818,W,003553,A,A*5D
$WIMWV,57.94,T,9.25,N,A*14
$WIMWV,38.50,R,12.60,N,A*28
$GPBOD,340.1,T,347.8,M,R28,*11
$GPBWC,003553,4229.6810,N,08242.8940,W,339.4,T,347.2,M,3.390,N,R28,A*29
$WIMWV,57.94,T,9.25,N,A*14
$WIMWV,38.50,R,12.60,N,A*28
$WIMDA,,I,,B,,C,25.80,C,,,,,,T,,M,,N,,M*66
$HEHDT,344.27,T*19
$GPVTG,344.27,T,352.03,M,4.95,N,9.16,K,A*24
$GPXTE,A,A,0.039,L,N,A*39
$WIMWV,57.94,T,9.25,N,A*14
$WIMWV,38.50,R,12.60,N,A*28
$PGRME,5.74,M,7.58,M,9.51,M*1F
$PGRMZ,683,f,3*16
$PGRMM,WGS 84*06
$GPRTE,1,1,c,*37
$HCHDM,,M*07
$WIMWV,,R,,,A*6D
$WIMWV,57.94,T,9.25,N,A*14
$WIMWV,38.50,R,12.60,N,A*28
$VWVHW,,T,,M,4.64,N,8.59,K*56
$GPAPB,A,A,0.039,L,N,V,V,347.8,M,R28,347.2,M,302.8,M,A*37
$WIMWV,51.57,T,8.80,N,A*13
$WIMWV,33.50,R,12.50,N,A*20
$WIMTW,25.80,C*32
$GPRMC,003555,A,4226.5158,N,08241.2828,W,5.06,344.54,160918,7.76,W,A*29
$WIMWV,52.13,T,8.73,N,A*1C
$WIMWV,33.50,R,12.50,N,A*20
$GPRMB,A,0.039,L,,R28,4229.6810,N,08242.8940,W,3.387,339.4,,V,A*0C
$WIMWV,52.13,T,8.73,N,A*1C
$WIMWV,33.50,R,12.50,N,A*20
$WIMDA,,I,,B,,C,25.80,C,,,,,,T,,M,,N,,M*66
$GPGGA,003555,4226.5158,N,08241.2828,W,1,13,0.69,208.31,M,-34.78,M,,*42
$GPGSA,A,3,01,10,11,12,14,15,18,20,21,24,25,31,1.17,0.69,0.95*0F
$WIMWV,52.13,T,8.73,N,A*1C
$WIMWV,33.50,R,12.50,N,A*20
$GPGSV,4,1,13,01,08,327,35,10,80,122,35,11,10,312,28,12,23,083,38*70
$WIMWV,61.29,T,9.25,N,A*17
$WIMWV,40.50,R,12.50,N,A*24
$GPGSV,4,2,13,14,45,274,31,15,02,081,38,18,25,307,33,20,49,137,27*7B
$VWVHW,,T,,M,4.62,N,8.55,K*5C
$WIMWV,60.86,T,9.44,N,A*14
$WIMWV,40.50,R,12.70,N,A*26
$GPGSV,4,3,13,21,06,179,32,24,24,047,39,25,21,127,28,31,23,209,43*7B
$GPGSV,4,4,13,32,66,300,34*4E
$WIMTW,25.80,C*32
$GPGLL,4226.5158,N,08241.2828,W,003555,A,A*57
$WIMWV,60.86,T,9.44,N,A*14
$WIMWV,40.50,R,12.70,N,A*26
$GPBOD,340.1,T,347.8,M,R28,*11
$GPBWC,003555,4229.6810,N,08242.8940,W,339.4,T,347.2,M,3.387,N,R28,A*29
$WIMWV,60.86,T,9.44,N,A*14
$WIMWV,40.50,R,12.70,N,A*26
$WIMDA,,I,,B,,C,25.80,C,,,,,,T,,M,,N,,M*66
$HEHDT,344.54,T*1D
$GPVTG,344.54,T,352.30,M,5.06,N,9.37,K,A*28
$GPXTE,A,A,0.039,L,N,A*39
$WIMWV,60.86,T,9.44,N,A*14
$WIMWV,40.50,R,12.70,N,A*26
$PGRME,5.73,M,7.58,M,9.50,M*19
$PGRMZ,683,f,3*16
$PGRMM,WGS 84*06
$GPRTE,1,1,c,*37
$HCHDM,,M*07
$WIMWV,,R,,,A*6D
$WIMWV,39.76,T,8.39,N,A*1C
$WIMWV,25.00,R,12.70,N,A*20
$VWVHW,,T,,M,4.84,N,8.96,K*5B
$GPAPB,A,A,0.039,L,N,V,V,347.8,M,R28,347.2,M,302.8,M,A*37
$WIMWV,39.76,T,8.39,N,A*1C
$WIMWV,25.00,R,12.70,N,A*20
$WIMTW,25.80,C*32
$GPRMC,003557,A,4226.5185,N,08241.2839,W,5.21,343.06,160918,7.76,W,A*2E
$WIMWV,40.42,T,8.27,N,A*1A
$WIMWV,25.00,R,12.70,N,A*20
$GPRMB,A,0.039,L,,R28,4229.6810,N,08242.8940,W,3.384,339.4,,V,A*0F
$WIMWV,40.42,T,8.27,N,A*1A
$WIMWV,25.00,R,12.70,N,A*20
$WIMDA,,I,,B,,C,25.80,C,,,,,,T,,M,,N,,M*66
$GPGGA,003557,4226.5185,N,08241.2839,W,1,13,0.69,208.38,M,-34.78,M,,*49
$GPGSA,A,3,01,10,11,12,14,15,18,20,21,24,25,31,1.17,0.69,0.95*0F
$WIMWV,40.42,T,8.27,N,A*1A
$WIMWV,25.00,R,12.70,N,A*20
$GPGSV,4,1,13,01,08,327,35,10,80,122,36,11,10,312,30,12,23,083,38*7A
$WIMWV,58.03,T,9.04,N,A*16
$WIMWV,37.50,R,12.60,N,A*27
$GPGSV,4,2,13,14,45,274,31,15,01,082,38,18,25,307,34,20,49,137,31*7B
$VWVHW,,T,,M,4.61,N,8.53,K*59
$WIMWV,58.03,T,9.04,N,A*16
$WIMWV,37.50,R,12.60,N,A*27
$GPGSV,4,3,13,21,06,179,32,24,24,047,39,25,21,127,25,31,23,209,43*76
$GPGSV,4,4,13,32,66,300,33*49
$WIMTW,25.80,C*32
$GPGLL,4226.5185,N,08241.2839,W,003557,A,A*55
$WIMWV,58.03,T,9.04,N,A*16
$WIMWV,37.50,R,12.60,N,A*27
$GPBOD,340.1,T,347.8,M,R28,*11
$GPBWC,003557,4229.6810,N,08242.8940,W,339.4,T,347.2,M,3.384,N,R28,A*28
$WIMWV,58.03,T,9.04,N,A*16
$WIMWV,37.50,R,12.60,N,A*27
$WIMDA,,I,,B,,C,25.80,C,,,,,,T,,M,,N,,M*66
$HEHDT,343.06,T*1D
$GPVTG,343.06,T,350.82,M,5.21,N,9.65,K,A*21
$GPXTE,A,A,0.039,L,N,A*39
$WIMWV,58.03,T,9.04,N,A*16
$WIMWV,37.50,R,12.60,N,A*27
$PGRME,5.70,M,7.58,M,9.48,M*13
$PGRMZ,684,f,3*11
$PGRMM,WGS 84*06
$GPRTE,1,1,c,*37
$HCHDM,,M*07
$WIMWV,,R,,,A*6D
$WIMWV,49.54,T,8.78,N,A*1E
$WIMWV,31.50,R,12.80,N,A*2F
$VWVHW,,T,,M,4.84,N,8.96,K*5B
$GPAPB,A,A,0.039,L,N,V,V,347.8,M,R28,347.2,M,302.8,M,A*37
$WIMWV,49.54,T,8.78,N,A*1E
$WIMWV,31.50,R,12.80,N,A*2F
$WIMTW,25.30,C*39
$GPRMC,003559,A,4226.5212,N,08241.2850,W,5.17,341.99,160918,7.76,W,A*23
$WIMWV,49.34,T,8.81,N,A*1E
$WIMWV,31.50,R,12.80,N,A*2F
$GPRMB,A,0.040,L,,R28,4229.6810,N,08242.8940,W,3.381,339.4,,V,A*04
$WIMWV,49.34,T,8.81,N,A*1E
$WIMWV,31.50,R,12.80,N,A*2F
$WIMDA,,I,,B,,C,25.30,C,,,,,,T,,M,,N,,M*6D
$GPGGA,003559,4226.5212,N,08241.2850,W,1,13,0.69,208.38,M,-34.78,M,,*45
$GPGSA,A,3,01,10,11,12,14,15,18,20,21,24,25,31,1.17,0.69,0.95*0F
$WIMWV,49.34,T,8.81,N,A*1E
$WIMWV,31.50,R,12.80,N,A*2F
$GPGSV,4,1,13,01,08,327,34,10,80,122,36,11,10,312,29,12,23,083,39*72
$WIMWV,61.89,T,9.20,N,A*18
$WIMWV,40.50,R,12.50,N,A*24
$GPGSV,4,2,13,14,45,274,32,15,01,082,38,18,25,307,34,20,49,137,29*71
$VWVHW,,T,,M,4.84,N,8.96,K*5B
$WIMWV,61.89,T,9.20,N,A*18
$WIMWV,40.50,R,12.50,N,A*24
$GPGSV,4,3,13,21,06,179,30,24,24,047,38,25,21,127,28,31,23,209,43*78
$GPGSV,4,4,13,32,66,300,34*4E
$WIMTW,25.30,C*39
$GPGLL,4226.5212,N,08241.2850,W,003559,A,A*59
$WIMWV,61.89,T,9.20,N,A*18
$WIMWV,40.50,R,12.50,N,A*24
$GPBOD,340.1,T,347.8,M,R28,*11
$GPBWC,003559,4229.6810,N,08242.8940,W,339.4,T,347.2,M,3.381,N,R28,A*23
$WIMWV,61.89,T,9.20,N,A*18
$WIMWV,40.50,R,12.50,N,A*24
$WIMDA,,I,,B,,C,25.30,C,,,,,,T,,M,,N,,M*6D
$HEHDT,341.99,T*19
$GPVTG,341.99,T,349.75,M,5.17,N,9.58,K,A*2E
$GPXTE,A,A,0.040,L,N,A*37
$WIMWV,61.89,T,9.20,N,A*18
$WIMWV,40.50,R,12.50,N,A*24
$PGRME,5.67,M,7.59,M,9.47,M*1B
$PGRMZ,684,f,3*11
$PGRMM,WGS 84*06
$GPRTE,1,1,c,*37
$HCHDM,,M*07
$WIMWV,,R,,,A*6D
$WIMWV,49.08,T,10.16,N,A*26
$WIMWV,33.00,R,14.10,N,A*27
$VWVHW,,T,,M,4.60,N,8.51,K*5A
$GPAPB,A,A,0.040,L,N,V,V,347.8,M,R28,347.2,M,302.8,M,A*39
$WIMWV,49.08,T,10.16,N,A*26
$WIMWV,33.00,R,14.10,N,A*27
$WIMTW,25.30,C*39
$GPRMC,003601,A,4226.5239,N,08241.2861,W,5.10,343.23,160918,7.76,W,A*22
$WIMWV,48.78,T,10.20,N,A*25
$WIMWV,33.00,R,14.10,N,A*27
$GPRMB,A,0.040,L,,R28,4229.6810,N,08242.8940,W,3.379,339.4,,V,A*03
$WIMWV,48.78,T,10.20,N,A*25
$WIMWV,33.00,R,14.10,N,A*27
$WIMDA,,I,,B,,C,25.30,C,,,,,,T,,M,,N,,M*6D
$GPGGA,003601,4226.5239,N,08241.2861,W,1,13,0.69,208.24,M,-34.78,M,,*4D
$GPGSA,A,3,01,10,11,12,14,15,18,20,21,24,25,31,1.17,0.69,0.95*0F
$WIMWV,48.78,T,10.20,N,A*25
$WIMWV,33.00,R,14.10,N,A*27
$GPGSV,4,1,13,01,08,327,34,10,80,122,37,11,10,312,30,12,23,083,39*7B
$WIMWV,54.15,T,8.91,N,A*10
$WIMWV,35.00,R,12.60,N,A*20
$GPGSV,4,2,13,14,45,274,33,15,01,082,38,18,25,307,33,20,49,137,30*7F
$VWVHW,,T,,M,4.61,N,8.53,K*59
$WIMWV,54.15,T,8.91,N,A*10
$WIMWV,35.00,R,12.60,N,A*20
$GPGSV,4,3,13,21,06,179,30,24,24,047,38,25,21,127,24,31,23,209,43*74
$GPGSV,4,4,13,32,66,300,35*4F
$WIMTW,25.30,C*39
$GPGLL,4226.5239,N,08241.2861,W,003601,A,A*5C
$WIMWV,54.15,T,8.91,N,A*10
$WIMWV,35.00,R,12.60,N,A*20
$GPBOD,340.1,T,347.8,M,R28,*11
$GPBWC,003601,4229.6810,N,08242.8940,W,339.4,T,347.2,M,3.379,N,R28,A*2A
$WIMWV,54.15,T,8.91,N,A*10
$WIMWV,35.00,R,12.60,N,A*20
$WIMDA,,I,,B,,C,25.30,C,,,,,,T,,M,,N,,M*6D
$HEHDT,343.23,T*1A
$GPVTG,343.23,T,350.99,M,5.10,N,9.45,K,A*2C
$GPXTE,A,A,0.040,L,N,A*37
$WIMWV,58.09,T,9.13,N,A*1A
$WIMWV,38.00,R,12.60,N,A*2D
$PGRME,5.66,M,7.55,M,9.43,M*12
$PGRMZ,683,f,3*16
$PGRMM,WGS 84*06
$GPRTE,1,1,c,*37
$HCHDM,,M*07
$WIMWV,,R,,,A*6D
$WIMWV,56.14,T,10.08,N,A*2A
$WIMWV,38.00,R,13.60,N,A*2C
$VWVHW,,T,,M,4.84,N,8.96,K*5B
$GPAPB,A,A,0.040,L,N,V,V,347.8,M,R28,347.2,M,302.8,M,A*39
$WIMWV,56.14,T,10.08,N,A*2A
$WIMWV,38.00,R,13.60,N,A*2C
$WIMTW,25.30,C*39
$GPRMC,003603,A,4226.5266,N,08241.2871,W,5.14,344.92,160918,7.76,W,A*22
$WIMWV,56.33,T,10.06,N,A*21
$WIMWV,38.00,R,13.60,N,A*2C
$GPRMB,A,0.040,L,,R28,4229.6810,N,08242.8940,W,3.376,339.4,,V,A*0C
$WIMWV,56.33,T,10.06,N,A*21
$WIMWV,38.00,R,13.60,N,A*2C
$WIMDA,,I,,B,,C,25.30,C,,,,,,T,,M,,N,,M*6D
$GPGGA,003603,4226.5266,N,08241.2871,W,1,13,0.69,208.22,M,-34.78,M,,*42
$GPGSA,A,3,01,10,11,12,14,15,18,20,21,24,25,31,1.17,0.69,0.95*0F
$WIMWV,47.23,T,9.47,N,A*1D
$WIMWV,31.00,R,13.50,N,A*26
$GPGSV,4,1,13,01,08,327,34,10,80,122,37,11,10,312,29,12,23,083,39*73
$WIMWV,47.23,T,9.47,N,A*1D
$WIMWV,31.00,R,13.50,N,A*26
$GPGSV,4,2,13,14,45,274,31,15,01,082,39,18,25,307,33,20,49,137,28*75
$VWVHW,,T,,M,4.84,N,8.96,K*5B
$WIMWV,47.23,T,9.47,N,A*1D
$WIMWV,31.00,R,13.50,N,A*26
$GPGSV,4,3,13,21,06,179,31,24,24,047,37,25,21,127,23,31,23,209,43*7D
$GPGSV,4,4,13,32,66,300,34*4E
$WIMTW,25.30,C*39
$GPGLL,4226.5266,N,08241.2871,W,003603,A,A*55
$WIMWV,47.23,T,9.47,N,A*1D
$WIMWV,31.00,R,13.50,N,A*26
$GPBOD,340.1,T,347.8,M,R28,*11
$GPBWC,003603,4229.6810,N,08242.8940,W,339.4,T,347.2,M,3.376,N,R28,A*27
$WIMWV,47.23,T,9.47,N,A*1D
$WIMWV,31.00,R,13.50,N,A*26
$WIMDA,,I,,B,,C,25.30,C,,,,,,T,,M,,N,,M*6D
$HEHDT,344.92,T*17
$GPVTG,344.92,T,352.68,M,5.14,N,9.53,K,A*2E
$GPXTE,A,A,0.040,L,N,A*37
$WIMWV,55.32,T,9.47,N,A*1E
$WIMWV,36.50,R,13.10,N,A*20
$PGRME,5.63,M,7.55,M,9.42,M*16
$PGRMZ,683,f,3*16
$PGRMM,WGS 84*06
$GPRTE,1,1,c,*37
$HCHDM,,M*07
$WIMWV,,R,,,A*6D
$WIMWV,55.32,T,9.47,N,A*1E
$WIMWV,36.50,R,13.10,N,A*20
$VWVHW,,T,,M,4.62,N,8.55,K*5C
$GPAPB,A,A,0.040,L,N,V,V,347.8,M,R28,347.2,M,302.8,M,A*39
$WIMWV,55.32,T,9.47,N,A*1E
$WIMWV,36.50,R,13.10,N,A*20
$WIMTW,25.30,C*39
$GPRMC,003605,A,4226.5293,N,08241.2883,W,5.25,344.03,160918,7.76,W,A*29
$WIMWV,55.87,T,9.41,N,A*16
$WIMWV,36.50,R,13.10,N,A*20
$GPRMB,A,0.040,L,,R28,4229.6810,N,08242.8940,W,3.373,339.4,,V,A*09
$WIMWV,55.87,T,9.41,N,A*16
$WIMWV,36.50,R,13.10,N,A*20
$WIMDA,,I,,B,,C,25.30,C,,,,,,T,,M,,N,,M*6D
$GPGGA,003605,4226.5293,N,08241.2883,W,1,13,0.69,208.32,M,-34.78,M,,*42
$GPGSA,A,3,01,10,11,12,14,15,18,20,21,24,25,31,1.17,0.69,0.95*0F
$WIMWV,44.41,T,8.72,N,A*1D
$WIMWV,28.00,R,13.00,N,A*2B
$GPGSV,4,1,13,01,08,327,34,10,80,122,36,11,10,312,29,12,23,083,40*7C
$WIMWV,44.41,T,8.72,N,A*1D
$WIMWV,28.00,R,13.00,N,A*2B
$GPGSV,4,2,13,14,45,274,31,15,01,082,39,18,25,307,33,20,49,137,28*75
$VWVHW,,T,,M,4.84,N,8.96,K*5B
$WIMWV,44.41,T,8.72,N,A*1D
$WIMWV,28.00,R,13.00,N,A*2B
$GPGSV,4,3,13,21,06,179,32,24,24,047,37,25,21,127,22,31,23,209,43*7F
$GPGSV,4,4,13,32,66,300,34*4E
$WIMTW,25.30,C*39
$GPGLL,4226.5293,N,08241.2883,W,003605,A,A*54
$WIMWV,44.41,T,8.72,N,A*1D
$WIMWV,28.00,R,13.00,N,A*2B
$GPBOD,340.1,T,347.8,M,R28,*11
$GPBWC,003605,4229.6810,N,08242.8940,W,339.4,T,347.2,M,3.373,N,R28,A*24
$WIMWV,44.41,T,8.72,N,A*1D
$WIMWV,28.00,R,13.00,N,A*2B
$WIMDA,,I,,B,,C,25.30,C,,,,,,T,,M,,N,,M*6D
$HEHDT,344.03,T*1F
$GPVTG,344.03,T,351.79,M,5.25,N,9.73,K,A*25
$GPXTE,A,A,0.040,L,N,A*37
$WIMWV,53.42,T,9.90,N,A*15
$WIMWV,35.50,R,13.70,N,A*25
$PGRME,5.62,M,7.54,M,9.40,M*14
$PGRMZ,683,f,3*16
$PGRMM,WGS 84*06
$GPRTE,1,1,c,*37
$HCHDM,,M*07
$WIMWV,,R,,,A*6D
$WIMWV,53.42,T,9.90,N,A*15
$WIMWV,35.50,R,13.70,N,A*25
$VWVHW,,T,,M,4.84,N,8.96,K*5B
$GPAPB,A,A,0.040,L,N,V,V,347.8,M,R28,347.2,M,302.8,M,A*39
$WIMWV,53.42,T,9.90,N,A*15
$WIMWV,35.50,R,13.70,N,A*25
$WIMTW,24.80,C*33
$GPRMC,003607,A,4226.5321,N,08241.2893,W,5.18,345.55,160918,7.76,W,A*2E
$WIMWV,53.09,T,9.94,N,A*1E
$WIMWV,35.50,R,13.70,N,A*25
$GPRMB,A,0.040,L,,R28,4229.6810,N,08242.8940,W,3.370,339.4,,V,A*0A
$WIMWV,45.70,T,9.57,N,A*18
$WIMWV,30.00,R,13.70,N,A*25
$WIMDA,,I,,B,,C,24.80,C,,,,,,T,,M,,N,,M*67
$GPGGA,003607,4226.5321,N,08241.2893,W,1,13,0.69,208.22,M,-34.78,M,,*48
$GPGSA,A,3,01,10,11,12,14,15,18,20,21,24,25,31,1.17,0.69,0.95*0F
$WIMWV,44.92,T,10.05,N,A*2A
$WIMWV,30.00,R,14.20,N,A*27
$GPGSV,4,1,13,01,08,327,34,10,80,122,36,11,10,312,32,12,23,083,40*76
$WIMWV,44.92,T,10.05,N,A*2A
$WIMWV,30.00,R,14.20,N,A*27
$GPGSV,4,2,13,14,45,274,32,15,01,082,38,18,25,307,32,20,49,137,27*79
$VWVHW,,T,,M,4.84,N,8.96,K*5B
$WIMWV,44.92,T,10.05,N,A*2A
$WIMWV,30.00,R,14.20,N,A*27
$GPGSV,4,3,13,21,06,179,32,24,24,047,37,25,21,127,24,31,23,209,43*79
$GPGSV,4,4,13,32,66,300,33*49
$WIMTW,25.30,C*39
$GPGLL,4226.5321,N,08241.2893,W,003607,A,A*5F
$WIMWV,44.92,T,10.05,N,A*2A
$WIMWV,30.00,R,14.20,N,A*27
$GPBOD,340.1,T,347.8,M,R28,*11
$GPBWC,003607,4229.6810,N,08242.8940,W,339.4,T,347.2,M,3.370,N,R28,A*25
$WIMWV,56.58,T,9.30,N,A*11
$WIMWV,37.00,R,12.90,N,A*2D
$WIMDA,,I,,B,,C,25.30,C,,,,,,T,,M,,N,,M*6D
$HEHDT,345.55,T*1D
$GPVTG,345.55,T,353.31,M,5.18,N,9.60,K,A*25
$GPXTE,A,A,0.040,L,N,A*37
$WIMWV,56.58,T,9.30,N,A*11
$WIMWV,37.00,R,12.90,N,A*2D
$PGRME,5.60,M,7.54,M,9.39,M*18
$PGRMZ,683,f,3*16
$PGRMM,WGS 84*06
$GPRTE,1,1,c,*37
$HCHDM,,M*07
$WIMWV,,R,,,A*6D
$WIMWV,56.58,T,9.30,N,A*11
$WIMWV,37.00,R,12.90,N,A*2D
$VWVHW,,T,,M,5.07,N,9.38,K*54
$GPAPB,A,A,0.040,L,N,V,V,347.8,M,R28,347.2,M,302.8,M,A*39
$WIMWV,56.58,T,9.30,N,A*11
$WIMWV,37.00,R,12.90,N,A*2D
$WIMTW,24.80,C*33
$GPRMC,003609,A,4226.5349,N,08241.2904,W,5.25,343.52,160918,7.76,W,A*2E
$WIMWV,56.94,T,9.26,N,A*16
$WIMWV,37.00,R,12.90,N,A*2D
$GPRMB,A,0.040,L,,R28,4229.6810,N,08242.8940,W,3.367,339.4,,V,A*0C
$WIMWV,48.95,T,9.14,N,A*19
$WIMWV,31.50,R,13.20,N,A*24
$WIMDA,,I,,B,,C,24.80,C,,,,,,T,,M,,N,,M*67
$GPGGA,003609,4226.5349,N,08241.2904,W,1,13,0.69,208.24,M,-34.78,M,,*41
$GPGSA,A,3,01,10,11,12,14,15,18,20,21,24,25,31,1.17,0.69,0.95*0F
$WIMWV,48.95,T,9.14,N,A*19
$WIMWV,31.50,R,13.20,N,A*24
$GPGSV,4,1,13,01,08,327,33,10,80,122,37,11,10,312,30,12,23,083,40*72
$WIMWV,48.95,T,9.14,N,A*19
$WIMWV,31.50,R,13.20,N,A*24
$GPGSV,4,2,13,14,45,274,31,15,01,082,38,18,25,307,33,20,49,137,29*75
$VWVHW,,T,,M,4.84,N,8.96,K*5B
$WIMWV,48.95,T,9.14,N,A*19
$WIMWV,31.50,R,13.20,N,A*24
$GPGSV,4,3,13,21,06,179,31,24,24,047,37,25,21,127,24,31,23,209,43*7A
$GPGSV,4,4,13,32,66,300,33*49
$WIMTW,24.80,C*33
$GPGLL,4226.5349,N,08241.2904,W,003609,A,A*50
$WIMWV,48.95,T,9.14,N,A*19
$WIMWV,31.50,R,13.20,N,A*24
$GPBOD,340.1,T,347.8,M,R28,*11
$GPBWC,003609,4229.6810,N,08242.8940,W,339.4,T,347.2,M,3.367,N,R28,A*2D
$WIMWV,50.43,T,8.79,N,A*11
$WIMWV,32.00,R,12.80,N,A*29
$WIMDA,,I,,B,,C,25.30,C,,,,,,T,,M,,N,,M*6D
$HEHDT,343.52,T*1C
$GPVTG,343.52,T,351.29,M,5.25,N,9.72,K,A*22
$GPXTE,A,A,0.040,L,N,A*37
$WIMWV,50.43,T,8.79,N,A*11
$WIMWV,32.00,R,12.80,N,A*29
$PGRME,5.60,M,7.54,M,9.39,M*18
$PGRMZ,683,f,3*16
$PGRMM,WGS 84*06
$GPRTE,1,1,c,*37
$HCHDM,,M*07
$WIMWV,,R,,,A*6D
$WIMWV,50.43,T,8.79,N,A*11
$WIMWV,32.00,R,12.80,N,A*29
$VWVHW,,T,,M,4.84,N,8.96,K*5B
$VWVLW,6216.70,N,21.01,N*4A
$GPAPB,A,A,0.040,L,N,V,V,347.8,M,R28,347.2,M,302.8,M,A*39
$WIMWV,50.43,T,8.79,N,A*11
$WIMWV,32.00,R,12.80,N,A*29
$WIMTW,25.30,C*39
$GPRMC,003611,A,4226.5378,N,08241.2916,W,5.39,341.18,160918,7.76,W,A*27
$WIMWV,51.14,T,8.71,N,A*1A
$WIMWV,32.00,R,12.80,N,A*29
$GPRMB,A,0.041,L,,R28,4229.6810,N,08242.8940,W,3.364,339.4,,V,A*0E
$WIMWV,59.25,T,8.85,N,A*1B
$WIMWV,37.50,R,12.50,N,A*24
$WIMDA,,I,,B,,C,24.80,C,,,,,,T,,M,,N,,M*67
$GPGGA,003611,4226.5378,N,08241.2916,W,1,13,0.69,208.20,M,-34.78,M,,*4D
$GPGSA,A,3,01,10,11,12,14,15,18,20,21,24,25,31,1.17,0.69,0.95*0F
$WIMWV,59.25,T,8.85,N,A*1B
$WIMWV,37.50,R,12.50,N,A*24
$GPGSV,4,1,13,01,08,327,32,10,80,122,37,11,10,312,31,12,23,083,39*7C
$WIMWV,59.25,T,8.85,N,A*1B
$WIMWV,37.50,R,12.50,N,A*24
$GPGSV,4,2,13,14,45,274,31,15,01,082,38,18,25,307,34,20,49,137,30*7A
$VWVHW,,T,,M,5.07,N,9.38,K*54
$VWVLW,6216.70,N,21.01,N*4A
$WIMWV,59.25,T,8.85,N,A*1B
$WIMWV,37.50,R,12.50,N,A*24
$GPGSV,4,3,13,21,06,179,30,24,24,047,38,25,21,127,24,31,23,209,43*74
$GPGSV,4,4,13,32,66,300,35*4F
$WIMTW,24.80,C*33
$GPGLL,4226.5378,N,08241.2916,W,003611,A,A*58
$WIMWV,59.25,T,8.85,N,A*1B
$WIMWV,37.50,R,12.50,N,A*24
$GPBOD,340.1,T,347.8,M,R28,*11
$GPBWC,003611,4229.6810,N,08242.8940,W,339.4,T,347.2,M,3.364,N,R28,A*27
$WIMWV,54.38,T,9.31,N,A*14
$WIMWV,35.00,R,13.20,N,A*25
$WIMDA,,I,,B,,C,24.80,C,,,,,,T,,M,,N,,M*67
$HEHDT,341.18,T*10
$GPVTG,341.18,T,348.95,M,5.39,N,9.99,K,A*29
$GPXTE,A,A,0.041,L,N,A*36
$WIMWV,54.38,T,9.31,N,A*14
$WIMWV,35.00,R,13.20,N,A*25
$PGRME,5.61,M,7.50,M,9.37,M*13
$PGRMZ,683,f,3*16
$PGRMM,WGS 84*06
$GPRTE,1,1,c,*37
$HCHDM,,M*07
$WIMWV,,R,,,A*6D
$WIMWV,54.38,T,9.31,N,A*14
$WIMWV,35.00,R,13.20,N,A*25
$VWVHW,,T,,M,4.85,N,8.98,K*54
$VWVLW,6216.70,N,21.01,N*4A
$GPAPB,A,A,0.041,L,N,V,V,347.8,M,R28,347.2,M,302.8,M,A*38
$WIMWV,54.38,T,9.31,N,A*14
$WIMWV,35.00,R,13.20,N,A*25
$WIMTW,24.80,C*33
$GPRMC,003613,A,4226.5405,N,08241.2928,W,5.31,343.79,160918,7.76,W,A*28
$WIMWV,53.99,T,9.35,N,A*1C
$WIMWV,35.00,R,13.20,N,A*25
$GPRMB,A,0.041,L,,R28,4229.6810,N,08242.8940,W,3.361,339.4,,V,A*0B
$WIMWV,54.91,T,8.02,N,A*16
$WIMWV,33.50,R,11.90,N,A*2F
$WIMDA,,I,,B,,C,24.80,C,,,,,,T,,M,,N,,M*67
$GPGGA,003613,4226.5405,N,08241.2928,W,1,13,0.69,208.21,M,-34.78,M,,*4E
$GPGSA,A,3,01,10,11,12,14,15,18,20,21,24,25,31,1.17,0.69,0.95*0F
$WIMWV,54.91,T,8.02,N,A*16
$WIMWV,33.50,R,11.90,N,A*2F
$GPGSV,4,1,13,01,08,327,32,10,80,122,38,11,10,312,32,12,23,083,39*70
$WIMWV,54.91,T,8.02,N,A*16
$WIMWV,33.50,R,11.90,N,A*2F
$GPGSV,4,2,13,14,45,274,33,15,01,082,38,18,25,307,34,20,49,137,30*78
$VWVHW,,T,,M,5.07,N,9.38,K*54
$VWVLW,6216.70,N,21.01,N*4A
$WIMWV,54.91,T,8.02,N,A*16
$WIMWV,33.50,R,11.90,N,A*2F
$GPGSV,4,3,13,21,06,179,30,24,24,047,37,25,21,127,24,31,23,209,43*7B
$GPGSV,4,4,13,32,66,300,34*4E
$WIMTW,24.80,C*33
$GPGLL,4226.5405,N,08241.2928,W,003613,A,A*5A
$WIMWV,54.91,T,8.02,N,A*16
$WIMWV,33.50,R,11.90,N,A*2F
$GPBOD,340.1,T,347.8,M,R28,*11
$GPBWC,003613,4229.6810,N,08242.8940,W,339.4,T,347.2,M,3.361,N,R28,A*20
$WIMWV,53.52,T,9.22,N,A*1D
$WIMWV,34.50,R,13.10,N,A*22
$WIMDA,,I,,B,,C,24.80,C,,,,,,T,,M,,N,,M*67
$HEHDT,343.79,T*15
$GPVTG,343.79,T,351.55,M,5.31,N,9.83,K,A*2B
$GPXTE,A,A,0.041,L,N,A*36
$WIMWV,53.52,T,9.22,N,A*1D
$WIMWV,34.50,R,13.10,N,A*22
$PGRME,5.59,M,7.43,M,9.29,M*15
$PGRMZ,683,f,3*16
$PGRMM,WGS 84*06
$GPRTE,1,1,c,*37
$HCHDM,,M*07
$WIMWV,,R,,,A*6D
$WIMWV,53.52,T,9.22,N,A*1D
$WIMWV,34.50,R,13.10,N,A*22
$VWVHW,,T,,M,4.84,N,8.96,K*5B
$VWVLW,6216.70,N,21.01,N*4A
$GPAPB,A,A,0.041,L,N,V,V,347.8,M,R28,347.2,M,302.8,M,A*38
$WIMWV,53.52,T,9.22,N,A*1D
$WIMWV,34.50,R,13.10,N,A*22
$WIMTW,24.80,C*33
$GPRMC,003615,A,4226.5434,N,08241.2937,W,5.24,345.27,160918,7.76,W,A*2B
$WIMWV,56.47,T,9.45,N,A*1D
$WIMWV,37.00,R,13.10,N,A*24
$GPRMB,A,0.041,L,,R28,4229.6810,N,08242.8940,W,3.358,339.4,,V,A*01
$WIMWV,56.47,T,9.45,N,A*1D
$WIMWV,37.00,R,13.10,N,A*24
$WIMDA,,I,,B,,C,24.80,C,,,,,,T,,M,,N,,M*67
$GPGGA,003615,4226.5434,N,08241.2937,W,1,13,0.69,208.32,M,-34.78,M,,*46
$GPGSA,A,3,01,10,11,12,14,15,18,20,21,24,25,31,1.17,0.69,0.95*0F
$WIMWV,56.47,T,9.45,N,A*1D
$WIMWV,37.00,R,13.10,N,A*24
$GPGSV,4,1,13,01,08,327,33,10,80,122,37,11,10,312,24,12,23,083,40*77
$WIMWV,56.47,T,9.45,N,A*1D
$WIMWV,37.00,R,13.10,N,A*24
$GPGSV,4,2,13,14,45,274,29,15,01,082,37,18,25,307,34,20,49,137,29*74
$VWVHW,,T,,M,4.83,N,8.94,K*5E
$VWVLW,6216.70,N,21.01,N*4A
$WIMWV,56.47,T,9.45,N,A*1D
$WIMWV,37.00,R,13.10,N,A*24
$GPGSV,4,3,13,21,06,179,31,24,24,047,38,25,21,127,25,31,23,209,43*74
$GPGSV,4,4,13,32,66,300,32*48
$WIMTW,24.80,C*33
$GPGLL,4226.5434,N,08241.2937,W,003615,A,A*50
$WIMWV,48.40,T,9.02,N,A*16
$WIMWV,31.00,R,13.10,N,A*22
$GPBOD,340.1,T,347.8,M,R28,*11
$GPBWC,003615,4229.6810,N,08242.8940,W,339.4,T,347.1,M,3.358,N,R28,A*2F
$WIMWV,48.40,T,9.02,N,A*16
$WIMWV,31.00,R,13.10,N,A*22
$WIMDA,,I,,B,,C,24.80,C,,,,,,T,,M,,N,,M*67
$HEHDT,345.27,T*18
$GPVTG,345.27,T,353.04,M,5.24,N,9.70,K,A*28
$GPXTE,A,A,0.041,L,N,A*36
$WIMWV,48.40,T,9.02,N,A*16
$WIMWV,31.00,R,13.10,N,A*22
$PGRME,5.59,M,7.43,M,9.30,M*1D
$PGRMZ,683,f,3*16
$PGRMM,WGS 84*06
$GPRTE,1,1,c,*37
$HCHDM,,M*07
$WIMWV,,R,,,A*6D
$WIMWV,48.40,T,9.02,N,A*16
$WIMWV,31.00,R,13.10,N,A*22
$VWVHW,,T,,M,5.08,N,9.40,K*54
$VWVLW,6216.70,N,21.01,N*4A
$GPAPB,A,A,0.041,L,N,V,V,347.8,M,R28,347.1,M,302.8,M,A*3B
$WIMWV,48.40,T,9.02,N,A*16
$WIMWV,31.00,R,13.10,N,A*22
$WIMTW,24.80,C*33
$GPRMC,003617,A,4226.5462,N,08241.2950,W,5.41,340.94,160918,7.76,W,A*25
$WIMWV,52.36,T,9.60,N,A*18
$WIMWV,34.00,R,13.60,N,A*20
$GPRMB,A,0.041,L,,R28,4229.6810,N,08242.8940,W,3.356,339.4,,V,A*0F
$WIMWV,52.36,T,9.60,N,A*18
$WIMWV,34.00,R,13.60,N,A*20
$WIMDA,,I,,B,,C,25.30,C,,,,,,T,,M,,N,,M*6D
$GPGGA,003617,4226.5462,N,08241.2950,W,1,13,0.69,208.39,M,-34.78,M,,*4D
$GPGSA,A,3,01,10,11,12,14,15,18,20,21,24,25,31,1.17,0.69,0.95*0F
$WIMWV,52.36,T,9.60,N,A*18
$WIMWV,34.00,R,13.60,N,A*20
$GPGSV,4,1,13,01,08,327,32,10,80,122,37,11,10,312,29,12,23,083,40*7B
$WIMWV,52.36,T,9.60,N,A*18
$WIMWV,34.00,R,13.60,N,A*20
$GPGSV,4,2,13,14,45,274,29,15,01,082,36,18,25,307,34,20,49,137,30*7D
$VWVHW,,T,,M,5.06,N,9.37,K*5A
$VWVLW,6216.70,N,21.01,N*4A
$WIMWV,52.36,T,9.60,N,A*18
$WIMWV,34.00,R,13.60,N,A*20
$GPGSV,4,3,13,21,06,179,30,24,24,047,37,25,21,127,25,31,23,209,43*7A
$GPGSV,4,4,13,32,66,300,32*48
$WIMTW,25.30,C*39
$GPGLL,4226.5462,N,08241.2950,W,003617,A,A*50
$WIMWV,52.96,T,10.05,N,A*29
$WIMWV,35.00,R,14.00,N,A*20
$GPBOD,340.1,T,347.8,M,R28,*11
$GPBWC,003617,4229.6810,N,08242.8940,W,339.4,T,347.1,M,3.356,N,R28,A*23
$WIMWV,52.96,T,10.05,N,A*29
$WIMWV,35.00,R,14.00,N,A*20
$WIMDA,,I,,B,,C,24.80,C,,,,,,T,,M,,N,,M*67
$HEHDT,340.94,T*15
$GPVTG,340.94,T,348.71,M,5.41,N,10.02,K,A*13
$GPXTE,A,A,0.041,L,N,A*36
$WIMWV,52.96,T,10.05,N,A*29
$WIMWV,35.00,R,14.00,N,A*20
$PGRME,5.61,M,7.50,M,9.36,M*12
$PGRMZ,684,f,3*11
$PGRMM,WGS 84*06
$GPRTE,1,1,c,*37
$HCHDM,,M*07
$WIMWV,,R,,,A*6D
$WIMWV,52.96,T,10.05,N,A*29
$WIMWV,35.00,R,14.00,N,A*20
$VWVHW,,T,,M,5.07,N,9.38,K*54
$VWVLW,6216.70,N,21.01,N*4A
$GPAPB,A,A,0.041,L,N,V,V,347.8,M,R28,347.1,M,302.8,M,A*3B
$WIMWV,52.96,T,10.05,N,A*29
$WIMWV,35.00,R,14.00,N,A*20
$WIMTW,24.80,C*33
$GPRMC,003619,A,4226.5491,N,08241.2962,W,5.28,346.27,160918,7.76,W,A*27
$WIMWV,46.39,T,10.24,N,A*2A
$WIMWV,31.00,R,14.40,N,A*20
$GPRMB,A,0.041,L,,R28,4229.6810,N,08242.8940,W,3.353,339.4,,V,A*0A
$WIMWV,46.39,T,10.24,N,A*2A
$WIMWV,31.00,R,14.40,N,A*20
$WIMDA,,I,,B,,C,24.80,C,,,,,,T,,M,,N,,M*67
$GPGGA,003619,4226.5491,N,08241.2962,W,1,13,0.69,208.44,M,-34.78,M,,*44
$GPGSA,A,3,01,10,11,12,14,15,18,20,21,24,25,31,1.17,0.69,0.95*0F
$WIMWV,46.39,T,10.24,N,A*2A
$WIMWV,31.00,R,14.40,N,A*20
$GPGSV,4,1,13,01,08,327,33,10,80,122,38,11,10,312,27,12,23,083,40*7B
$WIMWV,46.39,T,10.24,N,A*2A
$WIMWV,31.00,R,14.40,N,A*20
$GPGSV,4,2,13,14,45,274,32,15,01,082,35,18,25,307,33,20,49,137,31*72
$VWVHW,,T,,M,5.07,N,9.38,K*54
$VWVLW,6216.70,N,21.01,N*4A
$WIMWV,43.66,T,10.11,N,A*23
$WIMWV,29.00,R,14.40,N,A*29
$GPGSV,4,3,13,21,06,179,30,24,24,047,37,25,21,127,26,31,23,209,43*79
$GPGSV,4,4,13,32,66,300,32*48
$WIMTW,24.80,C*33
$GPGLL,4226.5491,N,08241.2962,W,003619,A,A*53
$WIMWV,45.42,T,9.05,N,A*1E
$WIMWV,29.00,R,13.30,N,A*29
$GPBOD,340.1,T,347.8,M,R28,*11
$GPBWC,003619,4229.6810,N,08242.8940,W,339.4,T,347.1,M,3.353,N,R28,A*28
$WIMWV,45.42,T,9.05,N,A*1E
$WIMWV,29.00,R,13.30,N,A*29
$WIMDA,,I,,B,,C,24.80,C,,,,,,T,,M,,N,,M*67
$HEHDT,346.27,T*1B
$GPVTG,346.27,T,354.03,M,5.28,N,9.78,K,A*2F
$GPXTE,A,A,0.041,L,N,A*36
$WIMWV,45.42,T,9.05,N,A*1E
$WIMWV,29.00,R,13.30,N,A*29
$PGRME,5.63,M,7.51,M,9.39,M*1E
$PGRMZ,684,f,3*11
$PGRMM,WGS 84*06
$GPRTE,1,1,c,*37
$HCHDM,,M*07
$WIMWV,,R,,,A*6D
$WIMWV,45.42,T,9.05,N,A*1E
$WIMWV,29.00,R,13.30,N,A*29
$VWVHW,,T,,M,4.84,N,8.96,K*5B
$VWVLW,6216.70,N,21.01,N*4A
$GPAPB,A,A,0.041,L,N,V,V,347.8,M,R28,347.1,M,302.8,M,A*3B
$WIMWV,51.22,T,9.96,N,A*17
$WIMWV,34.00,R,13.90,N,A*2F
$WIMTW,24.80,C*33
$GPRMC,003621,A,4226.5519,N,08241.2970,W,5.24,348.12,160918,7.76,W,A*2A
$WIMWV,51.04,T,9.99,N,A*1C
$WIMWV,34.00,R,13.90,N,A*2F
$GPRMB,A,0.042,L,,R28,4229.6810,N,08242.8940,W,3.350,339.4,,V,A*0A
$WIMWV,51.04,T,9.99,N,A*1C
$WIMWV,34.00,R,13.90,N,A*2F
$WIMDA,,I,,B,,C,24.80,C,,,,,,T,,M,,N,,M*67
$GPGGA,003621,4226.5519,N,08241.2970,W,1,13,0.69,208.39,M,-34.78,M,,*47
$GPGSA,A,3,01,10,11,12,14,15,18,20,21,24,25,31,1.17,0.69,0.95*0F
$WIMWV,51.04,T,9.99,N,A*1C
$WIMWV,34.00,R,13.90,N,A*2F
$GPGSV,4,1,13,01,08,327,33,10,80,122,37,11,10,312,26,12,23,083,40*75
$WIMWV,51.04,T,9.99,N,A*1C
$WIMWV,34.00,R,13.90,N,A*2F
$GPGSV,4,2,13,14,45,274,33,15,01,082,34,18,25,307,34,20,49,137,32*76
$VWVHW,,T,,M,5.06,N,9.37,K*5A
$VWVLW,6216.70,N,21.01,N*4A
$WIMWV,46.64,T,9.14,N,A*19
$WIMWV,30.00,R,13.30,N,A*21
$GPGSV,4,3,13,21,06,179,30,24,24,047,38,25,21,127,22,31,23,209,42*73
$GPGSV,4,4,13,32,66,300,34*4E
$WIMTW,24.80,C*33
$GPGLL,4226.5519,N,08241.2970,W,003621,A,A*5A
$WIMWV,46.64,T,9.14,N,A*19
$WIMWV,30.00,R,13.30,N,A*21
$GPBOD,340.1,T,347.8,M,R28,*11
$GPBWC,003621,4229.6810,N,08242.8940,W,339.4,T,347.1,M,3.350,N,R28,A*20
$WIMWV,46.64,T,9.14,N,A*19
$WIMWV,30.00,R,13.30,N,A*21
$WIMDA,,I,,B,,C,24.80,C,,,,,,T,,M,,N,,M*67
$HEHDT,348.12,T*13
$GPVTG,348.12,T,355.89,M,5.24,N,9.71,K,A*21
$GPXTE,A,A,0.042,L,N,A*35
$WIMWV,46.64,T,9.14,N,A*19
$WIMWV,30.00,R,13.30,N,A*21
$PGRME,5.62,M,7.45,M,9.33,M*10
$PGRMZ,684,f,3*11
$PGRMM,WGS 84*06
$GPRTE,1,1,c,*37
$HCHDM,,M*07
$WIMWV,,R,,,A*6D
$WIMWV,46.64,T,9.14,N,A*19
$WIMWV,30.00,R,13.30,N,A*21
$VWVHW,,T,,M,4.92,N,9.11,K*52
$VWVLW,6216.70,N,21.01,N*4A
$GPAPB,A,A,0.042,L,N,V,V,347.8,M,R28,347.1,M,302.8,M,A*38
$WIMWV,55.82,T,9.41,N,A*13
$WIMWV,36.50,R,13.10,N,A*20
$WIMTW,24.80,C*33
$GPRMC,003623,A,4226.5548,N,08241.2979,W,5.34,343.59,160918,7.76,W,A*20
$WIMWV,56.33,T,9.36,N,A*1A
$WIMWV,36.50,R,13.10,N,A*20
$GPRMB,A,0.042,L,,R28,4229.6810,N,08242.8940,W,3.347,339.4,,V,A*0C
$WIMWV,56.33,T,9.36,N,A*1A
$WIMWV,36.50,R,13.10,N,A*20
$WIMDA,,I,,B,,C,24.80,C,,,,,,T,,M,,N,,M*67
$GPGGA,003623,4226.5548,N,08241.2979,W,1,13,0.69,208.54,M,-34.78,M,,*43
$GPGSA,A,3,01,10,11,12,14,15,18,20,21,24,25,31,1.17,0.69,0.95*0F
$WIMWV,56.33,T,9.36,N,A*1A
$WIMWV,36.50,R,13.10,N,A*20
$GPGSV,4,1,13,01,08,327,32,10,80,122,37,11,10,312,31,12,23,083,40*72
$WIMWV,56.33,T,9.36,N,A*1A
$WIMWV,36.50,R,13.10,N,A*20
$GPGSV,4,2,13,14,45,274,32,15,01,082,33,18,25,307,34,20,49,137,30*72
$VWVHW,,T,,M,5.13,N,9.50,K*5F
$VWVLW,6216.70,N,21.01,N*4A
$WIMWV,47.99,T,9.01,N,A*1E
$WIMWV,30.50,R,13.20,N,A*25
$GPGSV,4,3,13,21,06,179,30,24,24,047,38,25,21,127,23,31,23,209,43*73
$GPGSV,4,4,13,32,66,300,33*49
$WIMTW,24.80,C*33
$GPGLL,4226.5548,N,08241.2979,W,003623,A,A*55
$WIMWV,47.99,T,9.01,N,A*1E
$WIMWV,30.50,R,13.20,N,A*25
$GPBOD,340.1,T,347.8,M,R28,*11
$GPBWC,003623,4229.6810,N,08242.8940,W,339.4,T,347.1,M,3.347,N,R28,A*24
$WIMWV,47.99,T,9.01,N,A*1E
$WIMWV,30.50,R,13.20,N,A*25
$WIMDA,,I,,B,,C,24.80,C,,,,,,T,,M,,N,,M*67
$HEHDT,343.59,T*17
$GPVTG,343.59,T,351.35,M,5.34,N,9.89,K,A*20
$GPXTE,A,A,0.042,L,N,A*35
$WIMWV,47.99,T,9.01,N,A*1E
$WIMWV,30.50,R,13.20,N,A*25
$PGRME,5.61,M,7.45,M,9.33,M*13
$PGRMZ,684,f,3*11
$PGRMM,WGS 84*06
$GPRTE,1,1,c,*37
$HCHDM,,M*07
$WIMWV,,R,,,A*6D
$WIMWV,47.99,T,9.01,N,A*1E
$WIMWV,30.50,R,13.20,N,A*25
$VWVHW,,T,,M,4.86,N,9.00,K*57
$VWVLW,6216.70,N,21.01,N*4A
$GPAPB,A,A,0.042,L,N,V,V,347.8,M,R28,347.1,M,302.8,M,A*38
$WIMWV,40.83,T,10.13,N,A*29
$WIMWV,27.00,R,14.60,N,A*25
$WIMTW,24.80,C*33
$GPRMC,003625,A,4226.5576,N,08241.2991,W,5.38,346.06,160918,7.76,W,A*2E
$WIMWV,40.98,T,10.10,N,A*20
$WIMWV,27.00,R,14.60,N,A*25
$GPRMB,A,0.042,L,,R28,4229.6810,N,08242.8940,W,3.344,339.4,,V,A*0F
$WIMWV,40.98,T,10.10,N,A*20
$WIMWV,27.00,R,14.60,N,A*25
$WIMDA,,I,,B,,C,24.80,C,,,,,,T,,M,,N,,M*67
$GPGGA,003625,4226.5576,N,08241.2991,W,1,13,0.69,208.55,M,-34.78,M,,*4F
$GPGSA,A,3,01,10,11,12,14,15,18,20,21,24,25,31,1.17,0.69,0.95*0F
$WIMWV,40.98,T,10.10,N,A*20
$WIMWV,27.00,R,14.60,N,A*25
$GPGSV,4,1,13,01,08,327,32,10,80,122,37,11,10,312,28,12,23,083,39*74
$WIMWV,40.98,T,10.10,N,A*20
$WIMWV,27.00,R,14.60,N,A*25
$GPGSV,4,2,13,14,45,274,33,15,01,082,32,18,25,307,33,20,49,137,30*75
$VWVHW,,T,,M,4.94,N,9.14,K*51
$WIMWV,56.12,T,9.52,N,A*1B
$WIMWV,36.50,R,13.30,N,A*22
$GPGSV,4,3,13,21,06,179,31,24,24,047,38,25,21,127,23,31,23,209,43*72
$GPGSV,4,4,13,32,66,300,34*4E
$WIMTW,24.80,C*33
$GPGLL,4226.5576,N,08241.2991,W,003625,A,A*58
$WIMWV,56.12,T,9.52,N,A*1B
$WIMWV,36.50,R,13.30,N,A*22
$GPBOD,340.1,T,347.8,M,R28,*11
$GPBWC,003625,4229.6810,N,08242.8940,W,339.4,T,347.1,M,3.344,N,R28,A*21
$WIMWV,56.12,T,9.52,N,A*1B
$WIMWV,36.50,R,13.30,N,A*22
$WIMDA,,I,,B,,C,24.80,C,,,,,,T,,M,,N,,M*67
$HEHDT,346.06,T*18
$GPVTG,346.06,T,353.83,M,5.38,N,9.96,K,A*22
$GPXTE,A,A,0.042,L,N,A*35
$WIMWV,56.12,T,9.52,N,A*1B
$WIMWV,36.50,R,13.30,N,A*22
$PGRME,5.63,M,7.46,M,9.35,M*14
$PGRMZ,684,f,3*11
$PGRMM,WGS 84*06
$GPRTE,1,1,c,*37
$HCHDM,,M*07
$WIMWV,,R,,,A*6D
$WIMWV,48.68,T,9.11,N,A*1E
$WIMWV,31.00,R,13.30,N,A*20
$VWVHW,,T,,M,5.06,N,9.37,K*5A
$GPAPB,A,A,0.042,L,N,V,V,347.8,M,R28,347.1,M,302.8,M,A*38
$WIMWV,45.79,T,10.84,N,A*27
$WIMWV,31.00,R,15.10,N,A*24
$WIMTW,24.80,C*33
$GPRMC,003627,A,4226.5605,N,08241.3000,W,5.24,348.00,160918,7.76,W,A*2E
$WIMWV,45.27,T,10.94,N,A*2D
$WIMWV,31.00,R,15.10,N,A*24
$GPRMB,A,0.042,L,,R28,4229.6810,N,08242.8940,W,3.341,339.4,,V,A*0A
$WIMWV,45.27,T,10.94,N,A*2D
$WIMWV,31.00,R,15.10,N,A*24
$WIMDA,,I,,B,,C,24.80,C,,,,,,T,,M,,N,,M*67
$GPGGA,003627,4226.5605,N,08241.3000,W,1,13,0.69,208.40,M,-34.78,M,,*4E
$GPGSA,A,3,01,10,11,12,14,15,18,20,21,24,25,31,1.17,0.69,0.95*0F
$WIMWV,45.27,T,10.94,N,A*2D
$WIMWV,31.00,R,15.10,N,A*24
$GPGSV,4,1,13,01,08,327,32,10,80,122,37,11,10,312,27,12,23,083,39*7B
$WIMWV,49.72,T,9.50,N,A*11
$WIMWV,32.50,R,13.50,N,A*20
$GPGSV,4,2,13,14,45,274,33,15,01,082,33,18,25,307,34,20,49,137,30*73
$VWVHW,,T,,M,4.61,N,8.53,K*59
$WIMWV,49.72,T,9.50,N,A*11
$WIMWV,32.50,R,13.50,N,A*20
$GPGSV,4,3,13,21,06,179,29,24,24,047,38,25,21,127,25,31,23,209,43*7D
$GPGSV,4,4,13,32,66,300,35*4F
$WIMTW,24.80,C*33
$GPGLL,4226.5605,N,08241.3000,W,003627,A,A*5D
$WIMWV,49.72,T,9.50,N,A*11
$WIMWV,32.50,R,13.50,N,A*20
$GPBOD,340.1,T,347.8,M,R28,*11
$GPBWC,003627,4229.6810,N,08242.8940,W,339.4,T,347.1,M,3.341,N,R28,A*26
$WIMWV,49.72,T,9.50,N,A*11
$WIMWV,32.50,R,13.50,N,A*20
$WIMDA,,I,,B,,C,24.80,C,,,,,,T,,M,,N,,M*67
$HEHDT,348.00,T*10
$GPVTG,348.00,T,355.76,M,5.24,N,9.70,K,A*23
$GPXTE,A,A,0.042,L,N,A*35
$WIMWV,49.72,T,9.50,N,A*11
$WIMWV,32.50,R,13.50,N,A*20
$PGRME,5.63,M,7.38,M,9.29,M*10
$PGRMZ,684,f,3*11
$PGRMM,WGS 84*06
$GPRTE,1,1,c,*37
$HCHDM,,M*07
$WIMWV,,R,,,A*6D
$WIMWV,52.85,T,10.19,N,A*26
$WIMWV,35.50,R,14.00,N,A*25
$VWVHW,,T,,M,5.07,N,9.38,K*54
$GPAPB,A,A,0.042,L,N,V,V,347.8,M,R28,347.1,M,302.8,M,A*38
$WIMWV,52.85,T,10.19,N,A*26
$WIMWV,35.50,R,14.00,N,A*25
$WIMTW,24.80,C*33
$GPRMC,003629,A,4226.5634,N,08241.3009,W,5.30,343.84,160918,7.76,W,A*29
$WIMWV,53.12,T,10.16,N,A*26
$WIMWV,35.50,R,14.00,N,A*25
$GPRMB,A,0.043,L,,R28,4229.6810,N,08242.8940,W,3.338,339.3,,V,A*02
$WIMWV,53.12,T,10.16,N,A*26
$WIMWV,35.50,R,14.00,N,A*25
$WIMDA,,I,,B,,C,24.80,C,,,,,,T,,M,,N,,M*67
$GPGGA,003629,4226.5634,N,08241.3009,W,1,13,0.69,208.35,M,-34.78,M,,*49
$GPGSA,A,3,01,10,11,12,14,15,18,20,21,24,25,31,1.17,0.69,0.95*0F
$WIMWV,53.12,T,10.16,N,A*26
$WIMWV,35.50,R,14.00,N,A*25
$GPGSV,4,1,13,01,08,327,32,10,80,122,36,11,10,312,30,12,23,083,39*7C
$WIMWV,43.74,T,10.09,N,A*29
$WIMWV,29.00,R,14.40,N,A*29
$GPGSV,4,2,13,14,45,274,34,15,01,082,35,18,25,307,35,20,49,137,31*72
$VWVHW,,T,,M,4.84,N,8.96,K*5B
$WIMWV,43.74,T,10.09,N,A*29
$WIMWV,29.00,R,14.40,N,A*29
$GPGSV,4,3,13,21,06,179,29,24,24,047,38,25,21,127,29,31,23,209,43*71
$GPGSV,4,4,13,32,66,300,35*4F
$WIMTW,24.80,C*33
$GPGLL,4226.5634,N,08241.3009,W,003629,A,A*58
$WIMWV,43.74,T,10.09,N,A*29
$WIMWV,29.00,R,14.40,N,A*29
$GPBOD,340.1,T,347.8,M,R28,*11
$GPBWC,003629,4229.6810,N,08242.8940,W,339.3,T,347.1,M,3.338,N,R28,A*21
$WIMWV,43.74,T,10.09,N,A*29
$WIMWV,29.00,R,14.40,N,A*29
$WIMDA,,I,,B,,C,24.80,C,,,,,,T,,M,,N,,M*67
$HEHDT,343.84,T*17
$GPVTG,343.84,T,351.60,M,5.30,N,9.81,K,A*2C
$GPXTE,A,A,0.043,L,N,A*34
$WIMWV,43.74,T,10.09,N,A*29
$WIMWV,29.00,R,14.40,N,A*29
$PGRME,5.65,M,7.36,M,9.28,M*19
$PGRMZ,684,f,3*11
$PGRMM,WGS 84*06
$GPRTE,1,1,c,*37
$HCHDM,,M*07
$WIMWV,,R,,,A*6D
$WIMWV,55.08,T,10.27,N,A*29
$WIMWV,37.00,R,14.00,N,A*22
$VWVHW,,T,,M,5.04,N,9.33,K*5C
$GPAPB,A,A,0.043,L,N,V,V,347.8,M,R28,347.1,M,302.8,M,A*39
$WIMWV,55.08,T,10.27,N,A*29
$WIMWV,37.00,R,14.00,N,A*22
$WIMTW,24.80,C*33
$GPRMC,003631,A,4226.5662,N,08241.3020,W,5.23,344.50,160918,7.76,W,A*24
$WIMWV,54.76,T,10.31,N,A*26
$WIMWV,37.00,R,14.00,N,A*22
$GPRMB,A,0.043,L,,R28,4229.6810,N,08242.8940,W,3.335,339.3,,V,A*0F
$WIMWV,54.76,T,10.31,N,A*26
$WIMWV,37.00,R,14.00,N,A*22
$WIMDA,,I,,B,,C,24.80,C,,,,,,T,,M,,N,,M*67
$GPGGA,003631,4226.5662,N,08241.3020,W,1,13,0.69,208.31,M,-34.78,M,,*4C
$GPGSA,A,3,01,10,11,12,14,15,18,20,21,24,25,31,1.17,0.69,0.95*0F
$WIMWV,61.70,T,10.74,N,A*27
$WIMWV,42.50,R,14.00,N,A*25
$GPGSV,4,1,13,01,08,327,27,10,80,122,35,11,10,312,34,12,23,083,38*7E
$WIMWV,63.01,T,10.08,N,A*28
$WIMWV,42.50,R,13.30,N,A*21
$GPGSV,4,2,13,14,45,274,35,15,01,082,36,18,25,307,35,20,49,137,33*72
$VWVHW,,T,,M,4.86,N,9.00,K*57
$WIMWV,63.01,T,10.08,N,A*28
$WIMWV,42.50,R,13.30,N,A*21
$GPGSV,4,3,13,21,06,179,30,24,24,047,38,25,21,127,29,31,23,209,42*78
$GPGSV,4,4,13,32,66,301,36*4D
$WIMTW,24.80,C*33
$GPGLL,4226.5662,N,08241.3020,W,003631,A,A*59
$WIMWV,63.01,T,10.08,N,A*28
$WIMWV,42.50,R,13.30,N,A*21
$GPBOD,340.1,T,347.8,M,R28,*11
$GPBWC,003631,4229.6810,N,08242.8940,W,339.3,T,347.1,M,3.335,N,R28,A*25
$WIMWV,63.01,T,10.08,N,A*28
$WIMWV,42.50,R,13.30,N,A*21
$WIMDA,,I,,B,,C,24.80,C,,,,,,T,,M,,N,,M*67
$HEHDT,344.50,T*19
$GPVTG,344.50,T,352.26,M,5.23,N,9.69,K,A*27
$GPXTE,A,A,0.043,L,N,A*34
$WIMWV,54.72,T,9.57,N,A*1A
$WIMWV,36.00,R,13.30,N,A*27
$PGRME,5.64,M,7.32,M,9.24,M*10
$PGRMZ,683,f,3*16
$PGRMM,WGS 84*06
$GPRTE,1,1,c,*37
$HCHDM,,M*07
$WIMWV,,R,,,A*6D
$WIMWV,54.72,T,9.57,N,A*1A
$WIMWV,36.00,R,13.30,N,A*27
$VWVHW,,T,,M,4.84,N,8.96,K*5B
$GPAPB,A,A,0.043,L,N,V,V,347.8,M,R28,347.1,M,302.8,M,A*39
$WIMWV,54.72,T,9.57,N,A*1A
$WIMWV,36.00,R,13.30,N,A*27
$WIMTW,24.80,C*33
$GPRMC,003633,A,4226.5691,N,08241.3030,W,5.28,345.30,160918,7.76,W,A*27
$WIMWV,54.97,T,9.54,N,A*12
$WIMWV,36.00,R,13.30,N,A*27
$GPRMB,A,0.043,L,,R28,4229.6810,N,08242.8940,W,3.332,339.3,,V,A*08
$WIMWV,54.97,T,9.54,N,A*12
$WIMWV,36.00,R,13.30,N,A*27
$WIMDA,,I,,B,,C,24.80,C,,,,,,T,,M,,N,,M*67
$GPGGA,003633,4226.5691,N,08241.3030,W,1,13,0.69,208.29,M,-34.78,M,,*4A
$GPGSA,A,3,01,10,11,12,14,15,18,20,21,24,25,31,1.17,0.69,0.95*0F
$WIMWV,57.45,T,10.11,N,A*27
$WIMWV,38.50,R,13.70,N,A*28
$GPGSV,4,1,13,01,08,327,30,10,80,122,36,11,10,312,32,12,23,083,38*7D
$WIMWV,57.45,T,10.11,N,A*27
$WIMWV,38.50,R,13.70,N,A*28
$GPGSV,4,2,13,14,45,274,34,15,01,082,37,18,25,307,34,20,49,137,32*72
$VWVHW,,T,,M,5.06,N,9.37,K*5A
$WIMWV,57.45,T,10.11,N,A*27
$WIMWV,38.50,R,13.70,N,A*28
$GPGSV,4,3,13,21,06,179,30,24,24,047,38,25,21,127,28,31,23,209,42*79
$GPGSV,4,4,13,32,66,301,35*4E
$WIMTW,24.80,C*33
$GPGLL,4226.5691,N,08241.3030,W,003633,A,A*56
$WIMWV,57.45,T,10.11,N,A*27
$WIMWV,38.50,R,13.70,N,A*28
$GPBOD,340.1,T,347.8,M,R28,*11
$GPBWC,003633,4229.6810,N,08242.8940,W,339.3,T,347.1,M,3.332,N,R28,A*20
$WIMWV,57.45,T,10.11,N,A*27
$WIMWV,38.50,R,13.70,N,A*28
$WIMDA,,I,,B,,C,24.80,C,,,,,,T,,M,,N,,M*67
$HEHDT,345.30,T*1E
$GPVTG,345.30,T,353.07,M,5.28,N,9.78,K,A*29
$GPXTE,A,A,0.043,L,N,A*34
$WIMWV,51.22,T,9.96,N,A*17
$WIMWV,34.00,R,13.90,N,A*2F
$PGRME,5.63,M,7.29,M,9.21,M*18
$PGRMZ,683,f,3*16
$PGRMM,WGS 84*06
$GPRTE,1,1,c,*37
$HCHDM,,M*07
$WIMWV,,R,,,A*6D
$WIMWV,51.22,T,9.96,N,A*17
$WIMWV,34.00,R,13.90,N,A*2F
$VWVHW,,T,,M,5.10,N,9.44,K*59
$GPAPB,A,A,0.043,L,N,V,V,347.8,M,R28,347.1,M,302.8,M,A*39
$WIMWV,51.22,T,9.96,N,A*17
$WIMWV,34.00,R,13.90,N,A*2F
$WIMTW,24.80,C*33
$GPRMC,003635,A,4226.5719,N,08241.3043,W,5.45,340.97,160918,7.76,W,A*27
$WIMWV,51.99,T,9.86,N,A*16
$WIMWV,34.00,R,13.90,N,A*2F
$GPRMB,A,0.043,L,,R28,4229.6810,N,08242.8940,W,3.329,339.3,,V,A*02
$WIMWV,51.99,T,9.86,N,A*16
$WIMWV,34.00,R,13.90,N,A*2F
$WIMDA,,I,,B,,C,24.80,C,,,,,,T,,M,,N,,M*67
$GPGGA,003635,4226.5719,N,08241.3043,W,1,13,0.69,208.22,M,-34.78,M,,*42
$GPGSA,A,3,01,10,11,12,14,15,18,20,21,24,25,31,1.17,0.69,0.95*0F
$WIMWV,40.79,T,8.89,N,A*16
$WIMWV,25.50,R,13.50,N,A*26
$GPGSV,4,1,13,01,08,327,31,10,80,122,37,11,10,312,28,12,23,083,38*76
$WIMWV,40.79,T,8.89,N,A*16
$WIMWV,25.50,R,13.50,N,A*26
$GPGSV,4,2,13,14,45,274,32,15,01,082,37,18,25,307,33,20,49,137,32*73
$VWVHW,,T,,M,5.29,N,9.79,K*5D
$WIMWV,40.79,T,8.89,N,A*16
$WIMWV,25.50,R,13.50,N,A*26
$GPGSV,4,3,13,21,06,179,29,24,24,047,37,25,21,127,24,31,23,209,42*72
$GPGSV,4,4,13,32,66,301,34*4F
$WIMTW,24.80,C*33
$GPGLL,4226.5719,N,08241.3043,W,003635,A,A*55
$WIMWV,40.79,T,8.89,N,A*16
$WIMWV,25.50,R,13.50,N,A*26
$GPBOD,340.1,T,347.8,M,R28,*11
$GPBWC,003635,4229.6810,N,08242.8940,W,339.3,T,347.1,M,3.329,N,R28,A*2C
$WIMWV,40.79,T,8.89,N,A*16
$WIMWV,25.50,R,13.50,N,A*26
$WIMDA,,I,,B,,C,24.80,C,,,,,,T,,M,,N,,M*67
$HEHDT,340.97,T*16
$GPVTG,340.97,T,348.73,M,5.45,N,10.09,K,A*1D
$GPXTE,A,A,0.043,L,N,A*34
$WIMWV,42.79,T,9.08,N,A*1C
$WIMWV,27.00,R,13.60,N,A*22
$PGRME,5.69,M,7.35,M,9.29,M*17
$PGRMZ,683,f,3*16
$PGRMM,WGS 84*06
$GPRTE,1,1,c,*37
$HCHDM,,M*07
$WIMWV,,R,,,A*6D
$WIMWV,42.79,T,9.08,N,A*1C
$WIMWV,27.00,R,13.60,N,A*22
$VWVHW,,T,,M,4.84,N,8.96,K*5B
$GPAPB,A,A,0.043,L,N,V,V,347.8,M,R28,347.1,M,302.8,M,A*39
$WIMWV,42.79,T,9.08,N,A*1C
$WIMWV,27.00,R,13.60,N,A*22
$WIMTW,24.80,C*33
$GPRMC,003637,A,4226.5749,N,08241.3056,W,5.40,344.10,160918,7.76,W,A*2A
$WIMWV,42.58,T,9.12,N,A*14
$WIMWV,27.00,R,13.60,N,A*22
$GPRMB,A,0.044,L,,R28,4229.6810,N,08242.8940,W,3.326,339.3,,V,A*0A
$WIMWV,42.58,T,9.12,N,A*14
$WIMWV,27.00,R,13.60,N,A*22
$WIMDA,,I,,B,,C,24.80,C,,,,,,T,,M,,N,,M*67
$GPGGA,003637,4226.5749,N,08241.3056,W,1,13,0.69,208.16,M,-34.78,M,,*46
$GPGSA,A,3,01,10,11,12,14,15,18,20,21,24,25,31,1.17,0.69,0.95*0F
$WIMWV,64.30,T,9.82,N,A*17
$WIMWV,42.50,R,13.10,N,A*23
$GPGSV,4,1,13,01,08,327,27,10,80,122,35,11,10,312,32,12,23,083,38*78
$WIMWV,64.30,T,9.82,N,A*17
$WIMWV,42.50,R,13.10,N,A*23
$GPGSV,4,2,13,14,45,274,30,15,01,082,38,18,25,307,32,20,49,137,32*7F
$VWVHW,,T,,M,5.29,N,9.79,K*5D
$WIMWV,64.30,T,9.82,N,A*17
$WIMWV,42.50,R,13.10,N,A*23
$GPGSV,4,3,13,21,06,179,30,24,24,047,37,25,21,127,26,31,23,209,42*78
$GPGSV,4,4,13,32,66,301,35*4E
$WIMTW,24.80,C*33
$GPGLL,4226.5749,N,08241.3056,W,003637,A,A*56
$WIMWV,64.30,T,9.82,N,A*17
$WIMWV,42.50,R,13.10,N,A*23
$GPBOD,340.1,T,347.8,M,R28,*11
$GPBWC,003637,4229.6810,N,08242.8940,W,339.3,T,347.1,M,3.326,N,R28,A*21
$WIMWV,64.30,T,9.82,N,A*17
$WIMWV,42.50,R,13.10,N,A*23
$WIMDA,,I,,B,,C,24.80,C,,,,,,T,,M,,N,,M*67
$HEHDT,344.10,T*1D
$GPVTG,344.10,T,351.86,M,5.40,N,9.99,K,A*20
$GPXTE,A,A,0.044,L,N,A*33
$WIMWV,48.38,T,9.71,N,A*1D
$WIMWV,31.50,R,13.90,N,A*2F
$PGRME,5.77,M,7.43,M,9.41,M*17
$PGRMZ,683,f,3*16
$PGRMM,WGS 84*06
$GPRTE,1,1,c,*37
$HCHDM,,M*07
$WIMWV,,R,,,A*6D
$WIMWV,48.38,T,9.71,N,A*1D
$WIMWV,31.50,R,13.90,N,A*2F
$VWVHW,,T,,M,5.07,N,9.38,K*54
$GPAPB,A,A,0.044,L,N,V,V,347.8,M,R28,347.1,M,302.8,M,A*3E
$WIMWV,48.38,T,9.71,N,A*1D
$WIMWV,31.50,R,13.90,N,A*2F
$WIMTW,24.80,C*33
$GPRMC,003639,A,4226.5777,N,08241.3065,W,5.26,346.05,160918,7.76,W,A*2F
$WIMWV,47.77,T,9.80,N,A*17
$WIMWV,31.50,R,13.90,N,A*2F
$GPRMB,A,0.044,L,,R28,4229.6810,N,08242.8940,W,3.323,339.3,,V,A*0F
$WIMWV,55.85,T,10.56,N,A*2A
$WIMWV,38.00,R,14.20,N,A*2F
$WIMDA,,I,,B,,C,24.80,C,,,,,,T,,M,,N,,M*67
$GPGGA,003639,4226.5777,N,08241.3065,W,1,13,0.69,208.16,M,-34.78,M,,*45
$GPGSA,A,3,01,10,11,12,14,15,18,20,21,24,25,31,1.17,0.69,0.95*0F
$WIMWV,55.85,T,10.56,N,A*2A
$WIMWV,38.00,R,14.20,N,A*2F
$GPGSV,4,1,13,01,08,327,28,10,80,122,35,11,10,312,31,12,23,083,38*74
$WIMWV,55.85,T,10.56,N,A*2A
$WIMWV,38.00,R,14.20,N,A*2F
$GPGSV,4,2,13,14,45,274,32,15,01,082,39,18,25,307,32,20,49,137,32*7C
$VWVHW,,T,,M,4.83,N,8.94,K*5E
$WIMWV,55.85,T,10.56,N,A*2A
$WIMWV,38.00,R,14.20,N,A*2F
$GPGSV,4,3,13,21,06,179,30,24,24,047,36,25,21,127,21,31,23,209,42*7E
$GPGSV,4,4,13,32,66,301,36*4D
$WIMTW,24.80,C*33
$GPGLL,4226.5777,N,08241.3065,W,003639,A,A*55
$WIMWV,55.85,T,10.56,N,A*2A
$WIMWV,38.00,R,14.20,N,A*2F
$GPBOD,340.1,T,347.8,M,R28,*11
$GPBWC,003639,4229.6810,N,08242.8940,W,339.3,T,347.1,M,3.323,N,R28,A*2A
$WIMWV,55.07,T,10.20,N,A*21
$WIMWV,37.00,R,13.90,N,A*2C
$WIMDA,,I,,B,,C,24.80,C,,,,,,T,,M,,N,,M*67
$HEHDT,346.05,T*1B
$GPVTG,346.05,T,353.81,M,5.26,N,9.74,K,A*20
$GPXTE,A,A,0.044,L,N,A*33
$WIMWV,55.07,T,10.20,N,A*21
$WIMWV,37.00,R,13.90,N,A*2C
$PGRME,5.81,M,7.45,M,9.45,M*1C
$PGRMZ,683,f,3*16
$PGRMM,WGS 84*06
$GPRTE,1,1,c,*37
$HCHDM,,M*07
$WIMWV,,R,,,A*6D
$WIMWV,55.07,T,10.20,N,A*21
$WIMWV,37.00,R,13.90,N,A*2C
$VWVHW,,T,,M,5.10,N,9.44,K*59
$GPAPB,A,A,0.044,L,N,V,V,347.8,M,R28,347.1,M,302.8,M,A*3E
$WIMWV,55.07,T,10.20,N,A*21
$WIMWV,37.00,R,13.90,N,A*2C
$WIMTW,24.80,C*33
$GPRMC,003641,A,4226.5806,N,08241.3074,W,5.30,347.23,160918,7.76,W,A*2B
$WIMWV,55.25,T,10.17,N,A*25
$WIMWV,37.00,R,13.90,N,A*2C
$GPRMB,A,0.044,L,,R28,4229.6810,N,08242.8940,W,3.320,339.3,,V,A*0C
$WIMWV,44.12,T,9.38,N,A*14
$WIMWV,28.50,R,13.70,N,A*29
$WIMDA,,I,,B,,C,24.80,C,,,,,,T,,M,,N,,M*67
$GPGGA,003641,4226.5806,N,08241.3074,W,1,13,0.69,208.06,M,-34.78,M,,*42
$GPGSA,A,3,01,10,11,12,14,15,18,20,21,24,25,31,1.17,0.69,0.95*0F
$WIMWV,44.12,T,9.38,N,A*14
$WIMWV,28.50,R,13.70,N,A*29
$GPGSV,4,1,13,01,08,327,29,10,80,122,37,11,10,312,30,12,23,083,38*76
$WIMWV,44.12,T,9.38,N,A*14
$WIMWV,28.50,R,13.70,N,A*29
$GPGSV,4,2,13,14,45,274,34,15,01,082,39,18,25,307,32,20,49,137,32*7A
$VWVHW,,T,,M,5.30,N,9.81,K*52
$WIMWV,44.12,T,9.38,N,A*14
$WIMWV,28.50,R,13.70,N,A*29
$GPGSV,4,3,13,21,06,179,30,24,24,047,35,25,21,127,24,31,23,209,43*79
$GPGSV,4,4,13,32,66,301,36*4D
$WIMTW,24.80,C*33
$GPGLL,4226.5806,N,08241.3074,W,003641,A,A*53
$WIMWV,44.12,T,9.38,N,A*14
$WIMWV,28.50,R,13.70,N,A*29
$GPBOD,340.1,T,347.8,M,R28,*11
$GPBWC,003641,4229.6810,N,08242.8940,W,339.3,T,347.1,M,3.320,N,R28,A*26
$WIMWV,52.81,T,9.93,N,A*18
$WIMWV,35.00,R,13.80,N,A*2F
$WIMDA,,I,,B,,C,24.80,C,,,,,,T,,M,,N,,M*67
$HEHDT,347.23,T*1E
$GPVTG,347.23,T,354.99,M,5.30,N,9.81,K,A*26
$GPXTE,A,A,0.044,L,N,A*33
$WIMWV,52.81,T,9.93,N,A*18
$WIMWV,35.00,R,13.80,N,A*2F
$PGRME,5.83,M,7.39,M,9.41,M*11
$PGRMZ,683,f,3*16
$PGRMM,WGS 84*06
$GPRTE,1,1,c,*37
$HCHDM,,M*07
$WIMWV,,R,,,A*6D
$WIMWV,52.81,T,9.93,N,A*18
$WIMWV,35.00,R,13.80,N,A*2F
$VWVHW,,T,,M,4.83,N,8.94,K*5E
$GPAPB,A,A,0.044,L,N,V,V,347.8,M,R28,347.1,M,302.8,M,A*3E
$WIMWV,52.81,T,9.93,N,A*18
$WIMWV,35.00,R,13.80,N,A*2F
$WIMTW,24.80,C*33
$GPRMC,003643,A,4226.5834,N,08241.3081,W,5.35,346.24,160918,7.76,W,A*21
$WIMWV,53.04,T,9.90,N,A*17
$WIMWV,35.00,R,13.80,N,A*2F
$GPRMB,A,0.045,L,,R28,4229.6810,N,08242.8940,W,3.317,339.3,,V,A*09
$WIMWV,68.47,T,10.37,N,A*2D
$WIMWV,46.50,R,13.30,N,A*25
$WIMDA,,I,,B,,C,24.80,C,,,,,,T,,M,,N,,M*67
$GPGGA,003643,4226.5834,N,08241.3081,W,1,13,0.69,208.04,M,-34.78,M,,*49
$GPGSA,A,3,01,10,11,12,14,15,18,20,21,24,25,31,1.17,0.69,0.95*0F
$WIMWV,68.47,T,10.37,N,A*2D
$WIMWV,46.50,R,13.30,N,A*25
$GPGSV,4,1,13,01,08,327,28,10,80,122,37,11,10,312,30,12,23,083,37*78
$WIMWV,68.47,T,10.37,N,A*2D
$WIMWV,46.50,R,13.30,N,A*25
$GPGSV,4,2,13,14,45,274,34,15,01,082,39,18,25,307,33,20,49,137,30*79
$VWVHW,,T,,M,5.29,N,9.79,K*5D
$WIMWV,68.47,T,10.37,N,A*2D
$WIMWV,46.50,R,13.30,N,A*25
$GPGSV,4,3,13,21,06,179,30,24,24,047,35,25,21,127,26,31,23,209,43*7B
$GPGSV,4,4,13,32,66,301,36*4D
$WIMTW,24.80,C*33
$GPGLL,4226.5834,N,08241.3081,W,003643,A,A*5A
$WIMWV,44.32,T,8.93,N,A*16
$WIMWV,28.00,R,13.30,N,A*28
$GPBOD,340.1,T,347.8,M,R28,*11
$GPBWC,003643,4229.6810,N,08242.8940,W,339.3,T,347.1,M,3.317,N,R28,A*20
$WIMWV,42.55,T,9.99,N,A*1A
$WIMWV,28.00,R,14.40,N,A*28
$WIMDA,,I,,B,,C,24.80,C,,,,,,T,,M,,N,,M*67
$HEHDT,346.24,T*18
$GPVTG,346.24,T,354.00,M,5.35,N,9.92,K,A*27
$GPXTE,A,A,0.045,L,N,A*32
$WIMWV,42.55,T,9.99,N,A*1A
$WIMWV,28.00,R,14.40,N,A*28
$PGRME,5.87,M,7.34,M,9.39,M*17
$PGRMZ,683,f,3*16
$PGRMM,WGS 84*06
$GPRTE,1,1,c,*37
$HCHDM,,M*07
$WIMWV,,R,,,A*6D
$WIMWV,42.55,T,9.99,N,A*1A
$WIMWV,28.00,R,14.40,N,A*28
$VWVHW,,T,,M,5.07,N,9.38,K*54
$GPAPB,A,A,0.045,L,N,V,V,347.8,M,R28,347.1,M,302.8,M,A*3F
$WIMWV,42.55,T,9.99,N,A*1A
$WIMWV,28.00,R,14.40,N,A*28
$WIMTW,24.80,C*33
$GPRMC,003645,A,4226.5863,N,08241.3092,W,5.46,343.14,160918,7.76,W,A*25
$WIMWV,55.17,T,10.14,N,A*27
$WIMWV,36.50,R,14.00,N,A*26
$GPRMB,A,0.045,L,,R28,4229.6810,N,08242.8940,W,3.314,339.3,,V,A*0A
$WIMWV,55.17,T,10.14,N,A*27
$WIMWV,36.50,R,14.00,N,A*26
$WIMDA,,I,,B,,C,24.80,C,,,,,,T,,M,,N,,M*67
$GPGGA,003645,4226.5863,N,08241.3092,W,1,13,0.69,208.13,M,-34.78,M,,*49
$GPGSA,A,3,01,10,11,12,14,15,18,20,21,24,25,31,1.17,0.69,0.95*0F
$WIMWV,55.17,T,10.14,N,A*27
$WIMWV,36.50,R,14.00,N,A*26
$GPGSV,4,1,13,01,08,327,31,10,80,122,37,11,10,312,31,12,23,083,38*7E
$WIMWV,55.17,T,10.14,N,A*27
$WIMWV,36.50,R,14.00,N,A*26
$GPGSV,4,2,13,14,45,274,34,15,01,082,38,18,25,307,32,20,49,137,30*79
$VWVHW,,T,,M,5.07,N,9.38,K*54
$WIMWV,55.17,T,10.14,N,A*27
$WIMWV,36.50,R,14.00,N,A*26
$GPGSV,4,3,13,21,06,179,31,24,24,047,35,25,21,127,28,31,23,209,43*74
$GPGSV,4,4,13,32,66,301,37*4C
$WIMTW,24.80,C*33
$GPGLL,4226.5863,N,08241.3092,W,003645,A,A*5C
$WIMWV,49.84,T,9.84,N,A*11
$WIMWV,32.50,R,14.00,N,A*22
$GPBOD,340.1,T,347.8,M,R28,*11
$GPBWC,003645,4229.6810,N,08242.8940,W,339.3,T,347.1,M,3.314,N,R28,A*25
$WIMWV,49.84,T,9.84,N,A*11
$WIMWV,32.50,R,14.00,N,A*22
$WIMDA,,I,,B,,C,24.80,C,,,,,,T,,M,,N,,M*67
$HEHDT,343.14,T*1E
$GPVTG,343.14,T,350.90,M,5.46,N,10.12,K,A*18
$GPXTE,A,A,0.045,L,N,A*32
$WIMWV,49.84,T,9.84,N,A*11
$WIMWV,32.50,R,14.00,N,A*22
$PGRME,5.85,M,7.27,M,9.33,M*1D
$PGRMZ,683,f,3*16
$PGRMM,WGS 84*06
$GPRTE,1,1,c,*37
$HCHDM,,M*07
$WIMWV,,R,,,A*6D
$WIMWV,49.84,T,9.84,N,A*11
$WIMWV,32.50,R,14.00,N,A*22
$VWVHW,,T,,M,5.07,N,9.38,K*54
$GPAPB,A,A,0.045,L,N,V,V,347.8,M,R28,347.1,M,302.8,M,A*3F
$WIMWV,49.84,T,9.84,N,A*11
$WIMWV,32.50,R,14.00,N,A*22
$WIMTW,24.80,C*33
$GPRMC,003647,A,4226.5892,N,08241.3101,W,5.27,346.79,160918,7.76,W,A*2B
$WIMWV,46.13,T,9.92,N,A*17
$WIMWV,30.50,R,14.10,N,A*21
$GPRMB,A,0.045,L,,R28,4229.6810,N,08242.8940,W,3.311,339.3,,V,A*0F
$WIMWV,46.13,T,9.92,N,A*17
$WIMWV,30.50,R,14.10,N,A*21
$WIMDA,,I,,B,,C,24.80,C,,,,,,T,,M,,N,,M*67
$GPGGA,003647,4226.5892,N,08241.3101,W,1,13,0.69,208.08,M,-34.78,M,,*44
$GPGSA,A,3,01,10,11,12,14,15,18,20,21,24,25,31,1.17,0.69,0.95*0F
$WIMWV,46.13,T,9.92,N,A*17
$WIMWV,30.50,R,14.10,N,A*21
$GPGSV,4,1,13,01,08,327,29,10,80,122,36,11,10,312,31,12,23,083,38*76
$WIMWV,46.13,T,9.92,N,A*17
$WIMWV,30.50,R,14.10,N,A*21
$GPGSV,4,2,13,14,45,274,34,15,01,082,37,18,25,307,31,20,49,137,31*74
$VWVHW,,T,,M,5.08,N,9.40,K*54
$WIMWV,46.13,T,9.92,N,A*17
$WIMWV,30.50,R,14.10,N,A*21
$GPGSV,4,3,13,21,06,179,30,24,24,047,34,25,21,127,27,31,23,209,43*7B
$GPGSV,4,4,13,32,66,301,36*4D
$WIMTW,24.80,C*33
$GPGLL,4226.5892,N,08241.3101,W,003647,A,A*5B
$WIMWV,56.58,T,10.17,N,A*2C
$WIMWV,38.00,R,13.80,N,A*22
$GPBOD,340.1,T,347.8,M,R28,*11
$GPBWC,003647,4229.6810,N,08242.8940,W,339.3,T,347.1,M,3.311,N,R28,A*22
$WIMWV,56.58,T,10.17,N,A*2C
$WIMWV,38.00,R,13.80,N,A*22
$WIMDA,,I,,B,,C,24.80,C,,,,,,T,,M,,N,,M*67
$HEHDT,346.79,T*10
$GPVTG,346.79,T,354.55,M,5.27,N,9.76,K,A*26
$GPXTE,A,A,0.045,L,N,A*32
$WIMWV,56.58,T,10.17,N,A*2C
$WIMWV,38.00,R,13.80,N,A*22
$PGRME,5.86,M,7.28,M,9.34,M*16
$PGRMZ,683,f,3*16
$PGRMM,WGS 84*06
$GPRTE,1,1,c,*37
$HCHDM,,M*07
$WIMWV,,R,,,A*6D
$WIMWV,56.58,T,10.17,N,A*2C
$WIMWV,38.00,R,13.80,N,A*22
$VWVHW,,T,,M,5.06,N,9.37,K*5A
$GPAPB,A,A,0.045,L,N,V,V,347.8,M,R28,347.1,M,302.8,M,A*3F
$WIMWV,56.58,T,10.17,N,A*2C
$WIMWV,38.00,R,13.80,N,A*22
$WIMTW,24.80,C*33
$GPRMC,003649,A,4226.5920,N,08241.3110,W,5.25,345.98,160918,7.76,W,A*23
$WIMWV,59.04,T,10.34,N,A*2B
$WIMWV,40.00,R,13.80,N,A*2D
$GPRMB,A,0.046,L,,R28,4229.6810,N,08242.8940,W,3.308,339.3,,V,A*04
$WIMWV,59.04,T,10.34,N,A*2B
$WIMWV,40.00,R,13.80,N,A*2D
$WIMDA,,I,,B,,C,24.80,C,,,,,,T,,M,,N,,M*67
$GPGGA,003649,4226.5920,N,08241.3110,W,1,13,0.69,208.08,M,-34.78,M,,*42
$GPGSA,A,3,01,10,11,12,14,15,18,20,21,24,25,31,1.17,0.69,0.95*0F
$WIMWV,59.04,T,10.34,N,A*2B
$WIMWV,40.00,R,13.80,N,A*2D
$GPGSV,4,1,13,01,08,327,28,10,80,122,36,11,10,312,32,12,23,083,38*74
$WIMWV,59.04,T,10.34,N,A*2B
$WIMWV,40.00,R,13.80,N,A*2D
$GPGSV,4,2,13,14,45,274,35,15,01,082,35,18,25,307,31,20,49,137,30*76
$VWVHW,,T,,M,5.07,N,9.38,K*54
$WIMWV,59.04,T,10.34,N,A*2B
$WIMWV,40.00,R,13.80,N,A*2D
$GPGSV,4,3,13,21,06,179,30,24,24,047,34,25,21,127,27,31,23,209,43*7B
$GPGSV,4,4,13,32,66,301,36*4D
$WIMTW,24.80,C*33
$GPGLL,4226.5920,N,08241.3110,W,003649,A,A*5D
$WIMWV,41.61,T,9.94,N,A*13
$WIMWV,27.50,R,14.30,N,A*25
$GPBOD,340.1,T,347.8,M,R28,*11
$GPBWC,003649,4229.6810,N,08242.8940,W,339.3,T,347.1,M,3.308,N,R28,A*24
$WIMWV,41.61,T,9.94,N,A*13
$WIMWV,27.50,R,14.30,N,A*25
$WIMDA,,I,,B,,C,24.80,C,,,,,,T,,M,,N,,M*67
$HEHDT,345.98,T*1C
$GPVTG,345.98,T,353.74,M,5.25,N,9.72,K,A*28
$GPXTE,A,A,0.046,L,N,A*31
$WIMWV,41.61,T,9.94,N,A*13
$WIMWV,27.50,R,14.30,N,A*25
$PGRME,5.87,M,7.27,M,9.34,M*18
$PGRMZ,683,f,3*16
$PGRMM,WGS 84*06
$GPRTE,1,1,c,*37
$HCHDM,,M*07
$WIMWV,,R,,,A*6D
$WIMWV,41.61,T,9.94,N,A*13
$WIMWV,27.50,R,14.30,N,A*25
$VWVHW,,T,,M,5.07,N,9.38,K*54
$GPAPB,A,A,0.046,L,N,V,V,347.8,M,R28,347.1,M,302.8,M,A*3C
$WIMWV,49.11,T,10.30,N,A*2A
$WIMWV,33.00,R,14.30,N,A*25
$WIMTW,24.80,C*33
$GPRMC,003651,A,4226.5949,N,08241.3122,W,5.35,344.20,160918,7.76,W,A*27
$WIMWV,49.86,T,10.04,N,A*23
$WIMWV,33.00,R,14.10,N,A*27
$GPRMB,A,0.046,L,,R28,4229.6810,N,08242.8940,W,3.305,339.3,,V,A*09
$WIMWV,49.86,T,10.04,N,A*23
$WIMWV,33.00,R,14.10,N,A*27
$WIMDA,,I,,B,,C,24.80,C,,,,,,T,,M,,N,,M*67
$GPGGA,003651,4226.5949,N,08241.3122,W,1,13,0.69,208.26,M,-34.78,M,,*49
$GPGSA,A,3,01,10,11,12,14,15,18,20,21,24,25,31,1.17,0.69,0.95*0F
$WIMWV,49.86,T,10.04,N,A*23
$WIMWV,33.00,R,14.10,N,A*27
$GPGSV,4,1,13,01,08,327,29,10,80,124,36,11,10,312,34,12,23,083,38*75
$WIMWV,49.86,T,10.04,N,A*23
$WIMWV,33.00,R,14.10,N,A*27
$GPGSV,4,2,13,14,45,274,34,15,01,082,35,18,25,307,31,20,49,137,30*77
$VWVHW,,T,,M,5.29,N,9.79,K*5D
$WIMWV,55.14,T,10.34,N,A*26
$WIMWV,37.00,R,14.10,N,A*23
$GPGSV,4,3,13,21,06,179,31,24,24,047,35,25,21,127,29,31,23,209,42*74
$GPGSV,4,4,13,32,66,301,36*4D
$WIMTW,24.80,C*33
$GPGLL,4226.5949,N,08241.3122,W,003651,A,A*5A
$WIMWV,55.14,T,10.34,N,A*26
$WIMWV,37.00,R,14.10,N,A*23
$GPBOD,340.1,T,347.8,M,R28,*11
$GPBWC,003651,4229.6810,N,08242.8940,W,339.3,T,347.0,M,3.305,N,R28,A*21
$WIMWV,55.14,T,10.34,N,A*26
$WIMWV,37.00,R,14.10,N,A*23
$WIMDA,,I,,B,,C,24.80,C,,,,,,T,,M,,N,,M*67
$HEHDT,344.20,T*1E
$GPVTG,344.20,T,351.96,M,5.35,N,9.91,K,A*28
$GPXTE,A,A,0.046,L,N,A*31
$WIMWV,55.14,T,10.34,N,A*26
$WIMWV,37.00,R,14.10,N,A*23
$PGRME,5.87,M,7.26,M,9.34,M*19
$PGRMZ,683,f,3*16
$PGRMM,WGS 84*06
$GPRTE,1,1,c,*37
$HCHDM,,M*07
$WIMWV,,R,,,A*6D
$WIMWV,55.14,T,10.34,N,A*26
$WIMWV,37.00,R,14.10,N,A*23
$VWVHW,,T,,M,5.29,N,9.79,K*5D
$GPAPB,A,A,0.046,L,N,V,V,347.8,M,R28,347.0,M,302.8,M,A*3D
$WIMWV,42.55,T,9.99,N,A*1A
$WIMWV,28.00,R,14.40,N,A*28
$WIMTW,24.80,C*33
$GPRMC,003653,A,4226.5978,N,08241.3133,W,5.47,344.35,160918,7.76,W,A*26
$WIMWV,43.02,T,9.90,N,A*10
$WIMWV,28.00,R,14.40,N,A*28
$GPRMB,A,0.046,L,,R28,4229.6810,N,08242.8940,W,3.302,339.3,,V,A*0E
$WIMWV,43.02,T,9.90,N,A*10
$WIMWV,28.00,R,14.40,N,A*28
$WIMDA,,I,,B,,C,24.80,C,,,,,,T,,M,,N,,M*67
$GPGGA,003653,4226.5978,N,08241.3133,W,1,13,0.69,208.34,M,-34.78,M,,*4A
$GPGSA,A,3,01,10,11,12,14,15,18,20,21,24,25,31,1.17,0.69,0.95*0F
$WIMWV,43.02,T,9.90,N,A*10
$WIMWV,28.00,R,14.40,N,A*28
$GPGSV,4,1,13,01,08,327,26,10,80,124,35,11,10,312,34,12,23,083,37*76
$WIMWV,43.02,T,9.90,N,A*10
$WIMWV,28.00,R,14.40,N,A*28
$GPGSV,4,2,13,14,45,274,33,15,01,082,35,18,25,307,32,20,49,137,30*73
$VWVHW,,T,,M,5.08,N,9.40,K*54
$WIMWV,56.98,T,10.35,N,A*20
$WIMWV,38.00,R,14.10,N,A*2C
$GPGSV,4,3,13,21,06,179,31,24,24,047,35,25,21,127,27,31,23,209,43*7B
$GPGSV,4,4,13,32,66,301,37*4C
$WIMTW,24.80,C*33
$GPGLL,4226.5978,N,08241.3133,W,003653,A,A*5A
$WIMWV,56.98,T,10.35,N,A*20
$WIMWV,38.00,R,14.10,N,A*2C
$GPBOD,340.1,T,347.8,M,R28,*11
$GPBWC,003653,4229.6810,N,08242.8940,W,339.3,T,347.0,M,3.302,N,R28,A*24
$WIMWV,56.98,T,10.35,N,A*20
$WIMWV,38.00,R,14.10,N,A*2C
$WIMDA,,I,,B,,C,24.80,C,,,,,,T,,M,,N,,M*67
$HEHDT,344.35,T*1A
$GPVTG,344.35,T,352.11,M,5.47,N,10.14,K,A*10
$GPXTE,A,A,0.046,L,N,A*31
$WIMWV,56.98,T,10.35,N,A*20
$WIMWV,38.00,R,14.10,N,A*2C
$PGRME,5.86,M,7.26,M,9.33,M*1F
$PGRMZ,684,f,3*11
$PGRMM,WGS 84*06
$GPRTE,1,1,c,*37
$HCHDM,,M*07
$WIMWV,,R,,,A*6D
$WIMWV,56.98,T,10.35,N,A*20
$WIMWV,38.00,R,14.10,N,A*2C
$VWVHW,,T,,M,4.90,N,9.07,K*57
$GPAPB,A,A,0.046,L,N,V,V,347.8,M,R28,347.0,M,302.8,M,A*3D
$WIMWV,44.72,T,9.78,N,A*16
$WIMWV,29.00,R,14.20,N,A*2F
$WIMTW,24.80,C*33
$GPRMC,003655,A,4226.6007,N,08241.3142,W,5.41,346.54,160918,7.76,W,A*27
$WIMWV,44.48,T,9.82,N,A*1A
$WIMWV,29.00,R,14.20,N,A*2F
$GPRMB,A,0.046,L,,R28,4229.6810,N,08242.8940,W,3.299,339.3,,V,A*0D
$WIMWV,44.48,T,9.82,N,A*1A
$WIMWV,29.00,R,14.20,N,A*2F
$WIMDA,,I,,B,,C,24.80,C,,,,,,T,,M,,N,,M*67
$GPGGA,003655,4226.6007,N,08241.3142,W,1,13,0.69,208.42,M,-34.78,M,,*49
$GPGSA,A,3,01,10,11,12,14,15,18,20,21,24,25,31,1.17,0.69,0.95*0F
$WIMWV,44.48,T,9.82,N,A*1A
$WIMWV,29.00,R,14.20,N,A*2F
$GPGSV,4,1,13,01,08,327,22,10,80,124,35,11,10,312,36,12,23,082,37*71
$WIMWV,43.78,T,9.79,N,A*1A
$WIMWV,28.50,R,14.20,N,A*2B
$GPGSV,4,2,13,14,45,274,34,15,01,082,34,18,25,307,32,20,49,137,30*75
$VWVHW,,T,,M,5.26,N,9.74,K*5F
$WIMWV,43.78,T,9.79,N,A*1A
$WIMWV,28.50,R,14.20,N,A*2B
$GPGSV,4,3,13,21,06,179,30,24,24,047,35,25,21,127,26,31,23,209,42*7A
$GPGSV,4,4,13,32,66,301,38*43
$WIMTW,24.80,C*33
$GPGLL,4226.6007,N,08241.3142,W,003655,A,A*58
$WIMWV,43.78,T,9.79,N,A*1A
$WIMWV,28.50,R,14.20,N,A*2B
$GPBOD,340.1,T,347.8,M,R28,*11
$GPBWC,003655,4229.6810,N,08242.8940,W,339.3,T,347.0,M,3.299,N,R28,A*21
$WIMWV,43.78,T,9.79,N,A*1A
$WIMWV,28.50,R,14.20,N,A*2B
$WIMDA,,I,,B,,C,24.80,C,,,,,,T,,M,,N,,M*67
$HEHDT,346.54,T*1F
$GPVTG,346.54,T,354.30,M,5.41,N,10.01,K,A*12
$GPXTE,A,A,0.046,L,N,A*31
$WIMWV,43.78,T,9.79,N,A*1A
$WIMWV,28.50,R,14.20,N,A*2B
$PGRME,5.85,M,7.24,M,9.31,M*1C
$PGRMZ,684,f,3*11
$PGRMM,WGS 84*06
$GPRTE,1,1,c,*37
$HCHDM,,M*07
$WIMWV,,R,,,A*6D
$WIMWV,58.91,T,9.99,N,A*19
$WIMWV,39.00,R,13.60,N,A*2D
$VWVHW,,T,,M,4.82,N,8.92,K*59
